stop_id,stop_name,stop_lat,stop_lon
"10174654","ป้ายรถประจำทาง","13.7159514","100.5656495"
"10174653","ป้ายรถประจำทาง การท่าเรือแห่งประเทศไทย","13.7130763","100.5643627"
"10174652","ป้ายรถประจำทาง มหาวิทยาลัยหอการค้า","13.7772813","100.5559571"
"10174651","ป้ายรถประจำทาง","13.7795569","100.5570805"
"10174650","ป้ายรถประจำทาง ตรงข้ามซอยแลนด์โก้","13.7833787","100.5591692"
"10174649","ป้ายรถประจำทาง แยกสุทธิสาร(ดับเพลิง)","13.7886456","100.5617523"
"10174648","ป้ายรถประจำทาง","13.7935907","100.5616711"
"10174647","ป้ายรถประจำทาง ซอยโชคชัยร่วมมิตร","13.7969659","100.5612598"
"10174646","ป้ายรถประจำทาง","13.7991978","100.5611779"
"10174645","ป้ายรถประจำทาง","13.8019368","100.5608503"
"10174644","ป้ายรถประจำทาง","13.8051162","100.5605593"
"10174643","ป้ายรถประจำทาง","13.8075741","100.5604299"
"10174642","ป้ายรถประจำทาง","13.8096984871","100.5600191613"
"10174641","ป้ายรถประจำทาง กองทะเบียนปราบปราม","13.8181532","100.5630153"
"10174640","ป้ายรถประจำทาง โรงเรียนสตรีวรนารถ","13.8222149","100.5654149"
"10174639","ป้ายรถประจำทาง โรงเรียนสตรีวรนารถ","13.8240761","100.5665136"
"10174638","ป้ายรถประจำทาง โรงเรียนเมทารักษ์การบริบาร","13.8302135","100.5700983"
"10174637","ป้ายรถประจำทาง","13.8346006882","100.5727425733"
"10174636","ป้ายรถประจำทาง โรงพยาบาลเมโย","13.8351935429","100.573097862"
"10174635","ป้ายรถประจำทาง","13.8381359","100.5749048"
"10174634","ป้ายรถประจำทาง","13.8413516","100.5768282"
"10174633","ป้ายรถประจำทาง โรงแรมมารวย","13.8431362744","100.577763357"
"10174632","ป้ายรถประจำทาง โรงแรมมารวย","13.8451426","100.5789167"
"10174631","ป้ายรถประจำทาง ตรงข้ามกรมป่าไม้","13.8480917","100.580632"
"10174630","ป้ายรถประจำทาง โรงเรียนสารวิทยา","13.851672922","100.582751611"
"10174629","ป้ายรถประจำทาง","13.8538804","100.584215"
"10174628","ป้ายรถประจำทาง","13.8559299","100.5853687"
"10174627","ป้ายรถประจำทาง กรมทหารราบกองพัน 1","13.8597445","100.5875338"
"10174626","ป้ายรถประจำทาง กรมทหารราบที่ 11","13.8633063935","100.5895898902"
"10174625","ป้ายรถประจำทาง ธนาคารอาคารสงเคราะห์","13.8659702","100.5912055"
"10174624","ป้ายรถประจำทาง ห้างเซ็นทรัลลาดพร้าว","13.8157457","100.5612214"
"10174623","ป้ายรถประจำทาง อู่บางเขน","13.8684563","100.5926657"
"10174622","ป้ายรถประจำทาง ไฟฟ้าบางเขน","13.8710364","100.5942131"
"10174621","อู่บางเขน","13.8695655514","100.5921004259"
"10174620","ป้ายรถประจำทาง สำนักผังเมือง","13.755584","100.5743542"
"10174619","ป้ายรถประจำทาง โรงพยาบาลปิยะเวช","13.7551439","100.5759398"
"10174618","ป้ายรถประจำทาง โรงพยาบาลปิยะเวช","13.7554248","100.5767923"
"10174617","ป้ายรถประจำทาง รพ.กรุงธนบุรี","13.7190368","100.4904565"
"10174616","ป้ายรถประจำทาง แยกสาทร","13.7211586","100.4927984"
"10174615","ป้ายรถประจำทาง รพ.กรุงธน","13.7146393","100.4888789"
"10174614","ป้ายรถประจำทาง ตลาดสำเหร่","13.7125267","100.4882027"
"10174613","ป้ายรถประจำทาง ที่ว่าการอำเภอพุทธมณฑล","13.801378","100.322398"
"10174612","ป้ายรถประจำทาง รพ.สมเด็จพระปิ่นเกล้า","13.7100766","100.487371"
"10174611","ป้ายรถประจำทาง ซอยสมเด็จเจ้าพระยา 18","13.7316329","100.5040638"
"10174610","ป้ายรถประจำทาง สมเด็จเจ้าพระยา 20","13.7305485","100.5071937"
"10174609","ป้ายรถประจำทาง โรงเรียนรัตนโกสินทร์สมโภชบวรนิเวศ ศาลายา","13.8027104","100.2993435"
"10174608","ป้ายรถประจำทาง กรมยุทธศาสตร์ทหารเรือ","13.802176","100.307139"
"10174607","ป้ายรถประจำทาง ห้างบิ๊กซีสุขสวัสดิ์","13.6538649","100.5207895"
"10174606","ป้ายรถประจำทาง ตลาดใหม่ศาลายา","13.8017468","100.3130205"
"10174605","ป้ายรถประจำทาง โรงเรียนมหิดลวิทยานุสรณ์","13.8013284","100.3187305"
"10174604","ป้ายรถประจำทาง มหาวิทยาลัยมหิดลศาลายา","13.7960467","100.3271332"
"10174603","ป้ายรถประจำทาง ต่างระดับวงแหวนอุตสาหกรรม","13.6631554","100.5170821"
"10174602","ป้ายรถประจำทาง ห้างเมเจอร์สุขสวัสดิ์","13.6606528243","100.5180404913"
"10174601","ป้ายรถประจำทาง สุขสวัสดิ์ 66","13.6490871","100.5226996"
"10174600","ป้ายรถประจำทาง ซอยบรมราชชนนี 72","13.7869807","100.3677973"
"10174599","ป้ายรถประจำทาง ร้านบุญถาวรบรมราชชนนี","13.7866056","100.3717992"
"10174598","ป้ายรถประจำทาง วัดชังเรือง","13.6146217","100.5461527"
"10174597","ป้ายรถประจำทาง ซอยปริ้น","13.6101839","100.5501385"
"10174596","ป้ายรถประจำทาง หมู่บ้านพระปิ่น 2","13.7859488","100.3777741"
"10174595","ป้ายรถประจำทาง โรงเรียนป้อมสวาท","13.5966661","100.5829343"
"10174594","ป้ายรถประจำทาง หมู่บ้านกฤษดานคร 20","13.7858429","100.380641"
"10174593","ป้ายรถประจำทาง ตรงข้ามถนนฉิมพลี","13.7804638","100.4310191"
"10174592","ป้ายรถประจำทาง ท่าพระจันทร์","13.7561108","100.4901199"
"10174591","ป้ายรถประจำทาง สำนักงานควบคุมความประพฤติ","13.7798184","100.4359992"
"10174590","ป้ายรถประจำทาง ม. ธรรมศาสาตร์","13.7559373","100.489538"
"10174589","ป้ายรถประจำทาง วัดกิ่งแก้ว","13.7797599","100.4391953"
"10174588","ป้ายรถประจำทาง","13.5852936","100.6136583"
"10174587","ป้ายรถประจำทาง สถานีตำรวจคู่ขนานลอยฟ้า","13.7853289","100.3897177"
"10174586","ป้ายรถประจำทาง หมู่บ้านเดอะซิตี้","13.785679","100.386258"
"10174585","ป้ายรถประจำทาง สะพานใหม่","13.8968953","100.609437"
"10174584","ป้ายรถประจำทาง แยกวัดเกาะ","13.9021272","100.612494"
"10174583","ป้ายรถประจำทาง หมู่บ้านเขมรัฐ","13.7837716","100.4049198"
"10174582","ป้ายรถประจำทาง ห้างเซ็นทรัลปิ่นเกล้า","13.7780691133","100.4777057032"
"10174581","ป้ายรถประจำทาง รพ. เจ้าพระยา","13.7840966","100.4720583"
"10174580","ป้ายรถประจำทาง","13.753743797","100.4939743951"
"10174579","ป้ายรถประจำทาง ซีเมนต์ไทย โฮมมาร์ท","13.788311","100.36096"
"10174578","ป้ายรถประจำทาง โรงเรียนฤทธิยะ","13.9159243","100.6206601"
"10174577","ป้ายรถประจำทาง หมู่บ้านพลอยแก้ว","13.7887779","100.3568844"
"10174576","ป้ายรถประจำทาง หอประชุมกานตรัตน์","13.9190327056","100.6225495706"
"10174575","ป้ายรถประจำทาง แยก คปอ.","13.9232574","100.6249775"
"10174574","ป้ายรถประจำทาง หมู่บ้านวานา","13.7887769","100.3517956"
"10174573","ป้ายรถประจำทาง ซอยแอนเน็กซ์","13.936245","100.6250882"
"10174572","ป้ายรถประจำทาง ซอยพหลโยธิน 62/2 แยก 2-1","13.945037","100.6233903"
"10174571","ป้ายรถประจำทาง หมู่บ้านรินทร์ทอง","13.9495625","100.6429173"
"10174570","ป้ายรถประจำทาง โรงแรมดอนอินทร์","13.9476858","100.6427648"
"10174569","ป้ายรถประจำทาง เทศบาลคูคต","13.941513","100.6421541"
"10174568","ป้ายรถประจำทาง หมู่บ้านลดาวัลย์","13.7885355","100.3416309"
"10174567","ป้ายรถประจำทาง ตรงข้ามวัดโพสพ","13.9397962","100.6419837"
"10174566","ป้ายรถประจำทาง บริษัทนครชัยแอร์หมอชิต 2","13.8281607","100.551939"
"10174565","ป้ายรถประจำทาง สภต.คูคต","13.9340664","100.641569"
"10174564","ป้ายรถประจำทาง บริษัทตรีเพชร","13.8246563","100.5578793"
"10174563","ป้ายรถประจำทาง มหาวิทยาลัยมหิดลศาลายา","13.7960494","100.3274204"
"10174562","ป้ายรถประจำทาง ฮั่วเซ่งฮง","13.800001","100.327338"
"10174561","ป้ายรถประจำทาง หมู่บ้านลัลลี่วิลล์","13.9321899","100.6708868"
"10174560","ป้ายรถประจำทาง โรงเรียนวัดนวลนรดิศ","13.7194106439","100.3954243741"
"10174559","ป้ายรถประจำทาง หมู่บ้านเอราวัณ","13.9324614","100.676798"
"10174558","ป้ายรถประจำทาง สถานีรถไฟศาลายา","13.801303","100.324232"
"10174557","ป้ายรถประจำทาง ซอยสุนีย์","13.9323246","100.6485042"
"10174556","ป้ายรถประจำทาง การเคหะ","13.9327372","100.6842098"
"10174555","ป้ายรถประจำทาง พุทธมณฑลสาย 2","13.7099973","100.3954027"
"10174554","ป้ายรถประจำทาง โรงเรียนผ่องสุวรรณ","13.9321697","100.653574"
"10174553","ป้ายรถประจำทาง ซอยเปียร์นนท์","13.9320136","100.660417"
"10174552","ป้ายรถประจำทาง วิเชียร คลอง 3","13.9319517","100.6640989"
"10174551","ป้ายรถประจำทาง สุขประชาสวรรค์","13.9100809","100.5065306"
"10174550","ป้ายรถประจำทาง วัดคลองชัน","13.93291","100.6891566"
"10174549","ป้ายรถประจำทาง กรมยุทธศาสตร์ทหารเรือ","13.8023525","100.307143"
"10174548","ป้ายรถประจำทาง","13.8063365","100.5483254"
"10174547","ป้ายรถประจำทาง คลอง 5","13.9334529","100.7064136"
"10174546","ป้ายรถประจำทาง หน้าธนาคารไทยพาณิชย์","13.5828767","100.7969658"
"10174545","ป้ายรถประจำทาง บริษัทเสริมสุขนนทบุรี","13.9515388","100.5308694"
"10174544","ป้ายรถประจำทาง วัดช่องลมนนทบุรี","13.9453899","100.5370806"
"10174543","ป้ายรถประจำทาง ศาลา อบต.","13.9335177","100.7095822"
"10174542","ป้ายรถประจำทาง สวนสิริกิติ์","13.8054221","100.5479732"
"10174541","ป้ายรถประจำทาง โรงเรียนเทคโนโลยีกรุงธน","13.7084663","100.3802253"
"10174540","ป้ายรถประจำทาง","13.7910795","100.5426401"
"10174539","ป้ายรถประจำทาง วัดแจ้งลำหิน (วงแหวน)","13.9336536","100.713938"
"10174538","ป้ายรถประจำทาง เซียร์รังสิต","13.9599114361","100.6209111926"
"10174537","ป้ายรถประจำทาง สนามกอล์ฟธัญธานี","13.9333183","100.6998978"
"10174536","ป้ายรถประจำทาง","13.7921293","100.5368093"
"10174535","ป้ายรถประจำทาง รพ.แพทย์รังสิต","13.9634522377","100.6204950712"
"10174534","ป้ายรถประจำทาง สะพานแดง","13.7926317","100.5344779"
"10174533","ป้ายรถประจำทาง โรงงานชัยบูรณ์","13.9333554","100.7033323"
"10174532","ป้ายรถประจำทาง ซอยติวานนท์ 39","13.8824943","100.5129361"
"10174531","ป้ายรถประจำทาง ปตอ.","13.7970631","100.5221413"
"10174530","ป้ายรถประจำทาง โรงเรียนพระโขนงวิทยา","13.7126297","100.5893101"
"10174529","ป้ายรถประจำทาง หมู่บ้านนิศาชลอ้อมใหญ่","13.7093501","100.2688254"
"10174528","ป้ายรถประจำทาง ไปรษณีย์","13.9338626","100.7184491"
"10174527","ป้ายรถประจำทาง วัดหลวง","13.8233958","100.5229114"
"10174526","ป้ายรถประจำทาง","13.8954521929","100.5533189016"
"10174525","ป้ายรถประจำทาง โรงงานไทโย","13.934318","100.7351542"
"10174524","ป้ายรถประจำทาง ตรงข้ามห้างเอดิสัน","13.7850597618","100.5114893737"
"10174523","ป้ายรถประจำทาง หมู่บ้านฟ้าปิยรมย์","13.9345024","100.739728"
"10174522","ป้ายรถประจำทาง สถานีดับเพลิงบางแค","13.7113663","100.4168623"
"10174521","ป้ายรถประจำทาง วงศ์สว่าง ซ.13","13.821627","100.5210453"
"10174520","ป้ายรถประจำทาง โรงพยาบาลวชิระ","13.7797574","100.5091329"
"10174519","ป้ายรถประจำทาง","13.7942829","100.5285056"
"10174518","ป้ายรถประจำทาง คลอง 7","13.9348204","100.7496519"
"10174517","ป้ายรถประจำทาง ป้อมปราการ","13.5395782","100.5739537"
"10174516","ป้ายรถประจำทาง บริษัทไทยโภชนา","13.547911","100.572434"
"10174515","ป้ายรถประจำทาง","13.8874572","100.5111007"
"10174514","ป้ายรถประจำทาง ตลาดพระโขนง","13.7124571","100.5948472"
"10174513","ป้ายรถประจำทาง ไทรม้า","13.8727013","100.4601219"
"10174512","ป้ายรถประจำทาง กรมการขนส่งทางบก","13.7948852","100.5270886"
"10174511","ป้ายรถประจำทาง บ้านพักคนชราบางแค","13.7122837","100.4274236"
"10174510","ป้ายรถประจำทาง ซอยเยาวพา","13.8064644","100.5282357"
"10174509","ป้ายรถประจำทาง จรัสนิทวงศ์ 77/3","13.790466","100.5032603"
"10174508","ป้ายรถประจำทาง โรงเรียนวัดประชุมราษฎร์","13.9339775","100.7218945"
"10174507","ป้ายรถประจำทาง สะพานพุทธ","13.740198","100.4977903"
"10174506","ป้ายรถประจำทาง โรงเรียนบูรณวิทย์","13.7885542","100.5006296"
"10174505","ป้ายรถประจำทาง ห้างเมอร์รี่คิงส์ปิ่นเกล้า","13.7766516","100.4785573"
"10174504","ป้ายรถประจำทาง โรงเรียนโสภณชนูปถัมภ์","13.7068269","100.2940502"
"10174503","ป้ายรถประจำทาง หอสมุดแห่งชาติ","13.7730040797","100.5059056239"
"10174502","ป้ายรถประจำทาง","13.7772811461","100.4854241448"
"10174501","ป้ายรถประจำทาง มหาวิทยาลัยสยาม","13.7186045925","100.4544313875"
"10174500","ป้ายรถประจำทาง ธนาคารแห่งประเทศไทย","13.7871629741","100.4983736201"
"10174499","ป้ายรถประจำทาง คลอง 6","13.9340023","100.7255592"
"10174498","ป้ายรถประจำทาง ตรงข้าม ป.เวชภัณฑ์","13.7789574494","100.486846773"
"10174497","ป้ายรถประจำทาง โรงละคร","13.7597239792","100.4921642823"
"10174496","ป้ายรถประจำทาง กระทรวงกลาโหม","13.7506655747","100.4936882858"
"10174495","ป้ายรถประจำทาง วัดประดู่บางจาก","13.7198111189","100.4566712145"
"10174494","ป้ายรถประจำทาง อนุสาวรีย์สมเด็จเจ้าฟ้ามหิดล","13.7664327","100.5350608"
"10174493","ป้ายรถประจำทาง","13.6261345851","100.5883100939"
"10174492","ป้ายรถประจำทาง","13.8187593","100.5178418"
"10174491","ป้ายรถประจำทาง อุดมเดช(กศน.)","13.6217385","100.5899119"
"10174490","ป้ายรถประจำทาง ศูนย์ภาษา ซีพี","13.7825765","100.4987491"
"10174489","ป้ายรถประจำทาง ประปาบางเขน","13.8766531","100.5952987"
"10174488","ป้ายรถประจำทาง ป้อมตำรวจดินแดง","13.7626702","100.5557397"
"10174487","ป้ายรถประจำทาง ตรงข้ามโรงเรียนนาคปลัด","13.7825734","100.4910787"
"10174486","ป้ายรถประจำทาง ศาลแรงงาน","13.7362164","100.5198638"
"10174485","ป้ายรถประจำทาง","13.9000893","100.5411837"
"10174483","ป้ายรถประจำทาง เขาดิน","13.7743573","100.5171725"
"10174482","ป้ายรถประจำทาง","13.7549893","100.5326667"
"10174481","ป้ายรถประจำทาง","13.8983686","100.5460512"
"10174480","ป้ายรถประจำทาง สถานีรถไฟฟ้า BTS. ราชเทวี","13.7519458","100.5314637"
"10174479","ป้ายรถประจำทาง ซอยเดลี่เบอลล์","13.806449","100.5228963"
"10174478","ป้ายรถประจำทาง","13.5989476","100.5973773"
"10174477","ป้ายรถประจำทาง","13.7744088131","100.5065477297"
"10174476","ป้ายรถประจำทาง","13.7769023","100.5199684"
"10174475","ป้ายรถประจำทาง สถานีตำรวจดับเพลิงอ้อมน้อย","13.7050126","100.3129976"
"10174474","ป้ายรถประจำทาง","13.7781319","100.5173191"
"10174473","ป้ายรถประจำทาง","13.7793924","100.5142697"
"10174472","ป้ายรถประจำทาง มหาวิทยาลัยจุฬาลงกรณ์ 2","13.7359144","100.5291046"
"10174471","ป้ายรถประจำทาง","13.7556989472","100.5245117675"
"10174470","ป้ายรถประจำทาง มหาวิทยาลัยจุฬาลงกรณ์","13.738199","100.529464"
"10174469","ป้ายรถประจำทาง ห้างคาร์ฟูร์รัตนธิเบศร์","13.8616404","100.503829"
"10174468","ป้ายรถประจำทาง ท่าราชวรดิษฐ์","13.7495926","100.4896377"
"10174467","ป้ายรถประจำทาง วัดกิ่งแก้ว","13.7803576","100.4391644"
"10174466","ป้ายรถประจำทาง ห้างเซ็นทรัลพระราม 3","13.6974921","100.538097"
"10174465","ป้ายรถประจำทาง","13.8196023","100.5640321"
"10174464","ป้ายรถประจำทาง","13.7279913608","100.4935190295"
"10174463","ป้ายรถประจำทาง ตรงข้ามโรงเรียนสยามบริหารธุรกิจ นนทบุรี","13.8594315","100.5174077"
"10174462","ป้ายรถประจำทาง เรียบทางรถไฟสถานีรถไฟหัวลำโพง","13.7415297259","100.5158831387"
"10174461","ป้ายรถประจำทาง ตึกปัจจะ","13.6962665","100.5378377"
"10174460","ป้ายรถประจำทาง","13.7436560693","100.5053918866"
"10174459","ป้ายรถประจำทาง","13.7446686","100.5356141"
"10174458","ป้ายรถประจำทาง","13.5854184","100.6122294"
"10174457","ป้ายรถประจำทาง","13.7283859","100.5158462"
"10174456","ป้ายรถประจำทาง","13.5846047","100.6147537"
"10174455","ป้ายรถประจำทาง เพชรเกษม ซอย 51","13.710107","100.4007999"
"10174454","ป้ายรถประจำทาง","13.5786198","100.6256733"
"10174453","ป้ายรถประจำทาง","13.72621603","100.5198295686"
"10174452","ป้ายรถประจำทาง","13.5722496","100.6416029"
"10174451","ป้ายรถประจำทาง","13.5710332657","100.647770611"
"10174450","ป้ายรถประจำทาง ตรงข้ามโรงเรียนสยามบริหารธุรกิจ นนทบุรี","13.8591582","100.5191152"
"10174449","ป้ายรถประจำทาง ซอยเพชรเกษม 45/1","13.7108824","100.4116046"
"10174448","ป้ายรถประจำทาง","13.5703935","100.6502641"
"10174447","ป้ายรถประจำทาง","13.5688832","100.6576784"
"10174446","ป้ายรถประจำทาง นางเลิ้ง","13.7607568","100.5163439"
"10174445","ป้ายรถประจำทาง","13.7348454","100.5242543"
"10174444","ป้ายรถประจำทาง","13.7295414","100.5305383"
"10174443","ป้ายรถประจำทาง โรงแรมแมนดาริน","13.7342957931","100.5255183386"
"10174442","ป้ายรถประจำทาง","13.5667876","100.6670001"
"10174441","ป้ายรถประจำทาง ตรงข้ามหมู่บ้านสี่ไชยทอง","13.9058305","100.5238407"
"10174440","ป้ายรถประจำทาง สนามบอล","13.7161936","100.5610369"
"10174439","ป้ายรถประจำทาง กองร้อยทหารขนส่งเรือ","13.7937961476","100.5180990368"
"10174438","ป้ายรถประจำทาง ท่าเตียน","13.7473057","100.4902879"
"10174437","ป้ายรถประจำทาง","13.7587692","100.5187148"
"10174436","ป้ายรถประจำทาง ห้างเมอร์รีคิงเจริญกรุง","13.7454699","100.5026665"
"10174435","ป้ายรถประจำทาง","13.5663029147","100.6699491742"
"10174434","ป้ายรถประจำทาง ศาลแรงงาน","13.7364154","100.5201223"
"10174433","ป้ายรถประจำทาง","13.7296293441","100.5304759632"
"10174432","ป้ายรถประจำทาง โรงพยาบาลสมุทรปราการ","13.5846819","100.5996839"
"10174431","ป้ายรถประจำทาง","13.7282621078","100.5259152354"
"10174430","ป้ายรถประจำทาง","13.5660301467","100.671115927"
"10174429","ป้ายรถประจำทาง","13.7603034","100.5172822"
"10174428","ป้ายรถประจำทาง","13.5645618549","100.6780779208"
"10174427","ป้ายรถประจำทาง","13.5641006145","100.6803031613"
"10174426","ป้ายรถประจำทาง ซอยพัฒนา","13.80634","100.5252879"
"10174425","ป้ายรถประจำทาง ซอยสะพานขาว","13.8063089","100.5289598"
"10174424","ป้ายรถประจำทาง วัดสุทัศน์","13.7510700439","100.5002776288"
"10174423","ป้ายรถประจำทาง","13.7455149582","100.4953643758"
"10174422","ป้ายรถประจำทาง สวนอาหารจวนทอง","13.7857579933","100.4704818583"
"10174421","ป้ายรถประจำทาง กรมรักษาดินแดง","13.7473027215","100.4950206393"
"10174420","ป้ายรถประจำทาง จรัญสนิทวงศ์ ซอย 43","13.769294","100.4785621"
"10174419","ป้ายรถประจำทาง ตรงข้ามกระทรวงมหาดไทย","13.7860421216","100.4618267111"
"10174418","ป้ายรถประจำทาง","13.7772431861","100.7462657715"
"10174417","ป้ายรถประจำทาง ตรงข้าม ศาลาว่าการกรุงเทพมหานคร","13.754504","100.5012587"
"10174416","ป้ายรถประจำทาง ตรงข้ามซอยกรุงเทพ-นนท์ 56","13.8307804","100.5253298"
"10174415","ป้ายรถประจำทาง ซอยวัดใหญ่ศรีสุพรรณ 2","13.726939","100.4895238"
"10174414","ป้ายรถประจำทาง หน้าปั๊มน้ำมัน","13.9075203","100.5055234"
"10174413","ป้ายรถประจำทาง","13.8290899579","100.5273888227"
"10174412","ป้ายรถประจำทาง วัดนครชื่นชุ่ม","13.7616768","100.3284402"
"10174411","ป้ายรถประจำทาง","13.7726667825","100.5268856962"
"10174410","ป้ายรถประจำทาง","13.7720363498","100.5263975341"
"10174409","ป้ายรถประจำทาง หมู่บ้านนครธน","13.7052543","100.3418791"
"10174408","ป้ายรถประจำทาง วัดราชนัดดาราม","13.7580504208","100.5020054625"
"10174407","ป้ายรถประจำทาง สถานีรถไฟฟ้า BTS อารีย์","13.7795073","100.5447065"
"10174406","ป้ายรถประจำทาง หน้าทางเข้าการเคหะบางพลี ป้าย 1","13.559739","100.7797694"
"10174405","ป้ายรถประจำทาง วัดมหาธาตุยุวราธรังสฤษฎิ์ราชวรมหาวิหาร","13.7540163","100.4895229"
"10174404","ป้ายรถประจำทาง สายใต้ใหม่","13.7876446","100.4675122"
"10174403","ป้ายรถประจำทาง ตรงข้ามเดอะไพน์ กอล์ฟแอนด์ลอดจ์","13.8362952","100.9062991"
"10174402","ป้ายรถประจำทาง ซอยสันติสุข 73","13.8388363","100.9021211"
"10174401","ป้ายรถประจำทาง ซอยมาตานุสรณ์","13.6981636","100.4962868"
"10174400","ป้ายรถประจำทาง วัดมะกอก","13.7809079","100.4276999"
"10174399","ป้ายรถประจำทาง ซอยแจ้งวัฒนะ-ปากเกร็ด 31","13.9018971","100.5355905"
"10174398","ป้ายรถประจำทาง โรงเรียนยอเซฟอุปถัมภ์","13.7184334","100.2589984"
"10174397","ป้ายรถประจำทาง วัดใหม่ทองเสน","13.7969024","100.5221488"
"10174396","ป้ายรถประจำทาง บุคคโล","13.7040344","100.4871057"
"10174395","ป้ายรถประจำทาง เมเจอร์ปิ่นเกล้า","13.7755770553","100.4795387877"
"10174394","ป้ายรถประจำทาง ตรงข้ามซอยร่มเกล้า 25/6","13.736027466","100.7463322693"
"10174393","ป้ายรถประจำทาง ท่าเตียน","13.7469394","100.4920347"
"10174392","ป้ายรถประจำทาง หมู่บ้านพัชรินทร์วิลล่า","13.7345051","100.3294155"
"10174391","ป้ายรถประจำทาง กรมการขนส่งทางบก","13.794844","100.5269857"
"10174390","ป้ายรถประจำทาง ใต้สะพานพระราม 7","13.8155581","100.5151012"
"10174389","ป้ายรถประจำทาง โรงเรียนอนุสรณ์ตระกูลกอดีรี","13.8447351","100.8969972"
"10174388","ป้ายรถประจำทาง จราจรกลาง","13.7472866429","100.4985289822"
"10174387","ป้ายรถประจำทาง กองทะเบียนปราบปราม","13.818133","100.5627552"
"10174386","ป้ายรถประจำทาง ซอยอารีย์","13.7738143634","100.5423377079"
"10174385","ป้ายรถประจำทาง","13.7245977","100.5162851"
"10174384","ป้ายรถประจำทาง ถนนสังฆสันติสุข","13.847366","100.892737"
"10174383","ป้ายรถประจำทาง สนามเป้า","13.7675034","100.5396365"
"10174382","ป้ายรถประจำทาง หมู่บ้านพรหมพิทักษ์","13.7105339","100.3302594"
"10174381","ป้ายรถประจำทาง วังสรานรมย์","13.7473581","100.4956619"
"10174380","ป้ายรถประจำทาง","13.702138","100.5024683"
"10174379","ป้ายรถประจำทาง ซอยกรุงเทพ-นนทบุรี4","13.8079386","100.5311201"
"10174378","ป้ายรถประจำทาง แยกพุทธมณฑลสาย 4","13.70547","100.3304911"
"10174377","ป้ายรถประจำทาง วัดลาดบัวขาว","13.7000060462","100.5001189675"
"10174376","ป้ายรถประจำทาง ตรงข้ามธนาคารกสิกรไทย","13.810506","100.5314441"
"10174375","ป้ายรถประจำทาง ตรงข้ามโรงเรียนสามแยกท่าไข่","13.8484789","100.8912165"
"10174374","ป้ายรถประจำทาง วัดท่าพระ","13.7334473","100.472033"
"10174373","ป้ายรถประจำทาง","13.741502","100.50782"
"10174372","ป้ายรถประจำทาง จันทร์สุข","13.849202","100.888265"
"10174371","ป้ายรถประจำทาง","13.8282723603","100.5689344503"
"10174370","ป้ายรถประจำทาง สนามบินดอนเมือง","13.914469","100.5982213"
"10174369","ป้ายรถประจำทาง กระทรวงศึกษาธิการ","13.7623949","100.5147831"
"10174368","ป้ายรถประจำทาง","13.7159082471","100.4791508882"
"10174367","ป้ายรถประจำทาง ตรงข้ามหมู่บ้านนันทวันเซ็นเตอร์ 1","13.850154","100.8840442"
"10174366","ป้ายรถประจำทาง สะพานกรุงธน","13.7790132162","100.5074219086"
"10174365","ป้ายรถประจำทาง ตรงข้ามธนันท์วัฒนะกิจ","13.8525325","100.8749562"
"10174364","ป้ายรถประจำทาง ซอยอัครพัฒน์","13.7081291","100.2839715"
"10174363","ป้ายรถประจำทาง วิทยาลัยทองสุข","13.772503903","100.3950852664"
"10174361","ป้ายรถประจำทาง สถานีรถไฟหัวลำโพง","13.7372248","100.5173924"
"10174360","ป้ายรถประจำทาง","13.7070155991","100.48169447"
"10174359","ป้ายรถประจำทาง ตรงช้ามสำนักงานเลขาธิการ","13.776365647","100.3950851709"
"10174358","ป้ายรถประจำทาง วัดใหญ่","13.5936107","100.5654198"
"10174357","ป้ายรถประจำทาง","13.5935658433","100.5706073209"
"10174356","ป้ายรถประจำทาง สำนักงานสรรพากรหนองจอก","13.8520246","100.8609198"
"10174355","ป้ายรถประจำทาง สามแยกเจดีย์","13.5942208","100.5791175"
"10174354","ป้ายรถประจำทาง ศาลฎีกา","13.7551945","100.4940954"
"10174353","ป้ายรถประจำทาง โรงเรียนสุเหร่าหะยีมินา","13.8540286","100.8694571"
"10174352","ป้ายรถประจำทาง","13.7407029416","100.4988054069"
"10174351","ป้ายรถประจำทาง ตลาดดอกไม้(สะพานพุทธ)","13.7422153969","100.4962284755"
"10174350","ป้ายรถประจำทาง สามย่าน","13.734258","100.5290912"
"10174349","ป้ายรถประจำทาง ศูนย์ฝึกอบรมสถาบันพัฒนาข้าราชการกรุงเทพฯ","13.8468621","100.858144"
"10174348","ป้ายรถประจำทาง","13.7685494","100.5304475"
"10174347","ป้ายรถประจำทาง กรมแพทย์ทหารบก","13.7595115439","100.5354367756"
"10174346","ป้ายรถประจำทาง","13.7735392","100.6561204"
"10174345","ป้ายรถประจำทาง","13.7068879","100.5476592"
"10174344","ป้ายรถประจำทาง มหาวิทยาลัยเทคโนโลยีมหานคร","13.8427108","100.8560196"
"10174343","ป้ายรถประจำทาง ซอยวัดสวัสดิ์","13.7830976","100.5157501"
"10174342","ป้ายรถประจำทาง ห้างโรบินสันบางรัก","13.6794046706","100.5103837672"
"10174341","ป้ายรถประจำทาง บริษัทล็อกซเล่ย์","13.7164677","100.5574949"
"10174340","ป้ายรถประจำทาง โรงเรียนเซนต์คาเบรียล","13.7762852701","100.5074350939"
"10174339","ป้ายรถประจำทาง ซอยรอดอนันต์ 4","13.7751988","100.658837"
"10174338","ป้ายรถประจำทาง ซอยวัดแคใต้","13.7822988","100.5172048"
"10174337","ป้ายรถประจำทาง สถานีรถไฟฟ้า BTS หมอชิต","13.8025718","100.5538617"
"10174336","ป้ายรถประจำทาง ตรงข้ามเอ.ไอ.เอส.","13.786433","100.5472505"
"10174335","ป้ายรถประจำทาง","13.7373717288","100.4859136847"
"10174334","ป้ายรถประจำทาง วัดชนะสงคราม","13.7619904","100.4933236"
"10174333","ป้ายรถประจำทาง","13.7311438838","100.5053154314"
"10174332","ป้ายรถประจำทาง ซอยเชื่อมสัมพันธ์ 6","13.8384598","100.8538167"
"10174331","ป้ายรถประจำทาง อนุสาวรีย์ชัยสมรภูมิ","13.7643309","100.5386239"
"10174330","ป้ายรถประจำทาง กทม. 2","13.7686344","100.5541751"
"10174329","ป้ายรถประจำทาง อัมพวัน","13.7801841","100.52107"
"10174328","ป้ายรถประจำทาง สำนักงานไปรษณีย์ตลิ่งชัน","13.782084","100.4165471"
"10174327","ป้ายรถประจำทาง","13.7412379","100.6941102"
"10174326","ป้ายรถประจำทาง","13.727617498","100.4982499327"
"10174325","ป้ายรถประจำทาง โรงเรียนฝึกอาชีพกรุงเทพฯ(หนองจอก)","13.8289813","100.848935"
"10174324","ป้ายรถประจำทาง ชุมชนสะฮาดะห์","13.7395953","100.6900422"
"10174323","ป้ายรถประจำทาง สน.บางกอกน้อย","13.7543532","100.4693453"
"10174322","ป้ายรถประจำทาง ท่ารถประจำทางหมอชิต","13.810907","100.5477382"
"10174321","ป้ายรถประจำทาง","13.7499405","100.5537344"
"10174320","ป้ายรถประจำทาง มัสยิดดารุนาฮีม","13.7401452","100.6880435"
"10174319","ป้ายรถประจำทาง หมู่บ้านพิบูลทรัพย์","13.8236767","100.8462654"
"10174318","ป้ายรถประจำทาง","13.7368918","100.5389244"
"10174317","ป้ายรถประจำทาง ร้านอาหารจีรพัร","13.7493409","100.6500328"
"10174316","ป้ายรถประจำทาง บ้านราชวิถี","13.769942838","100.5274182638"
"10174315","ป้ายรถประจำทาง ราชวัตร","13.7786491","100.5237846"
"10174314","ป้ายรถประจำทาง หมู่บ้านอยู่สบาย","13.7405019","100.6858498"
"10174313","ป้ายรถประจำทาง นครไชยศรี","13.7773138","100.5261849"
"10174312","ป้ายรถประจำทาง สนามกอล์ฟยูนิโก้","13.7452183","100.6688816"
"10174311","ป้ายรถประจำทาง โรงเรียนจรัญบริหารธุรกิจ","13.7772940769","100.4850408823"
"10174310","ป้ายรถประจำทาง หมู่บ้านแสงทอง","13.7436127","100.6724469"
"10174309","ป้ายรถประจำทาง โรงพยาบาลศรีวิชัย 3","13.7073032","100.2896129"
"10174308","ป้ายรถประจำทาง ซอยจรัญสนิทวงศ์ 49","13.7748542988","100.4829356754"
"10174307","ป้ายรถประจำทาง กรุงเทพกรีฑา ซอย C4","13.7413082","100.6827846"
"10174306","ป้ายรถประจำทาง เทสโก้ โลตัส จรัญสนิทวงศ์","13.7884848","100.5010276"
"10174305","ป้ายรถประจำทาง ซอยเชื่อมสัมพันธ์ 22","13.8205667","100.8446562"
"10174304","ป้ายรถประจำทาง กรุงเทพกรีฑา ซอย C2","13.7422721","100.6763999"
"10174303","ป้ายรถประจำทาง กรุงเทพกรีฑา ซอย C4","13.7412195","100.6826965"
"10174302","ป้ายรถประจำทาง ม. สยาม","13.7844417411","100.4565832042"
"10174301","ป้ายรถประจำทาง อ้อมน้อย","13.7063337","100.2988122"
"10174300","ป้ายรถประจำทาง เรือนทองนิเวศน์","13.7925112","100.6849514"
"10174299","ป้ายรถประจำทาง โรงเรียนนนทรีวิทยา","13.7069321","100.5474545"
"10174298","ป้ายรถประจำทาง ศาลเจ้าแม่ทับทิม","13.7434023271","100.5013911902"
"10174297","ป้ายรถประจำทาง สวรรคโลก","13.7764973183","100.5275817135"
"10174296","ป้ายรถประจำทาง หมู่บ้านพนาสนธ์วิลล่า","13.8172468","100.8429138"
"10174295","ป้ายรถประจำทาง ตรงข้ามซอยรัตนาธิเบศร์ 36","13.8706206","100.4829173"
"10174294","ป้ายรถประจำทาง กรุงเทพกรีฑา ซอย C2","13.7423578","100.6763993"
"10174293","ป้ายรถประจำทาง วัดราชสิงขร","13.7050158","100.5058076"
"10174292","ป้ายรถประจำทาง ซอยสมเด็จเจ้าพระยา 6","13.7333386","100.4991299"
"10174291","ป้ายรถประจำทาง ซอยเชื่อมสัมพันธ์ 26","13.8152915","100.8419176"
"10174290","ป้ายรถประจำทาง วัดโพธิ์ทอง","13.6839985","100.4867392"
"10174289","ป้ายรถประจำทาง","13.7447748","100.5840815"
"10174288","ป้ายรถประจำทาง ธนาคารนครหลวงไทย สาขาเพชรบุรีตัดใหม่","13.7438873","100.5875945"
"10174287","ป้ายรถประจำทาง คลองต้นไทร","13.71929","100.50834"
"10174286","ป้ายรถประจำทาง หมู่บ้านซื่อตรง(สุวินทวงศ์)","13.8073508","100.8360278"
"10174285","ป้ายรถประจำทาง หมู่บ้านพรหมพิทักษ์","13.7105046","100.3305678"
"10174284","ป้ายรถประจำทาง อู่สวนสยาม","13.8011472657","100.6937713012"
"10174283","ป้ายรถประจำทาง สุขุมวิท ซอย 12","13.7389566623","100.5580120312"
"10174282","ป้ายรถประจำทาง สยามปาร์คซิตี้","13.8065692","100.6916437"
"10174281","ป้ายรถประจำทาง ตลาดดินแดง","13.7656118137","100.5570522264"
"10174280","ป้ายรถประจำทาง ท่ารถสาย 84 อ้อมใหญ่","13.7145455","100.2623032"
"10174279","ป้ายรถประจำทาง โรงเรียนกวดวิชาสังขร","13.8169685","100.5321735"
"10174278","ป้ายรถประจำทาง เวทีมวยสยาม","13.7042833","100.3196007"
"10174277","ป้ายรถประจำทาง สน.บางกอกใหญ่","13.7293494066","100.4760843574"
"10174276","ป้ายรถประจำทาง ซอยแจ้งวัฒนะ-ปากเกร็ด 15","13.9061938","100.5202149"
"10174275","ป้ายรถประจำทาง ยานเกราะ","13.8206662746","100.5203079484"
"10174274","ป้ายรถประจำทาง ตลาดสมบูรณ์อ้อมน้อย","13.7039524","100.3236891"
"10174273","ป้ายรถประจำทาง หมู่บ้านกฤษณา(สุวินทวงศ์)","13.8085028","100.822479"
"10174272","ป้ายรถประจำทาง หมู่บ้านสินพัฒนาธานี","13.737498","100.329597"
"10174271","ป้ายรถประจำทาง ตรงข้ามซอยสวนสยาม 16","13.8089611","100.6903204"
"10174270","ป้ายรถประจำทาง หมู่บ้านแสงทอง","13.7437345","100.6725185"
"10174269","ป้ายรถประจำทาง สนามกอล์ฟยูนิโก้","13.7454138","100.6689211"
"10174268","ป้ายรถประจำทาง หมู่บ้านพิบูลย์","13.8204354","100.508595"
"10174267","ป้ายรถประจำทาง","13.8139298","100.5181968"
"10174266","ป้ายรถประจำทาง","13.7456251","100.7464283"
"10174265","ป้ายรถประจำทาง การไฟฟ้าย่อยบางกะปิ","13.7440125653","100.6020117142"
"10174264","ป้ายรถประจำทาง เยาวราช","13.7389403","100.5119879"
"10174263","ป้ายรถประจำทาง ตรงข้ามวัดเศวตฉัตร","13.7141975","100.5042225"
"10174262","ป้ายรถประจำทาง ใต้สะพานพระราม 7","13.8157278","100.515154"
"10174261","ป้ายรถประจำทาง ตรงข้ามห้าง Big C นนทบุรี","13.8442414","100.5119733"
"10174260","ป้ายรถประจำทาง ซอยเจริญนครซอย 32","13.7125491","100.5021118"
"10174259","ป้ายรถประจำทาง ตรงข้ามซอยเพชรเกษม 25/1","13.7217998","100.4597365"
"10174258","ป้ายรถประจำทาง","13.7619141","100.6376973"
"10174257","ป้ายรถประจำทาง ตรงข้ามสวนอาหารหนองคาย","13.8678783","100.4899759"
"10174256","ป้ายรถประจำทาง","14.0065244959","100.6147874635"
"10174255","ป้ายรถประจำทาง ซอยศิริชัย 1/1","13.8390841","100.5156753"
"10174254","ป้ายรถประจำทาง แยกสาทร","13.7206685","100.4928427"
"10174253","ป้ายรถประจำทาง","13.7428666","100.7463975"
"10174252","ป้ายรถประจำทาง","13.7600177658","100.6203143496"
"10174251","ป้ายรถประจำทาง","13.7290380284","100.5010520258"
"10174250","ป้ายรถประจำทาง หมู่บ้านภัสสร 10","13.8089771","100.8177854"
"10174249","ป้ายรถประจำทาง อินทามะระ ซอย 7","13.7890001","100.5536006"
"10174248","ป้ายรถประจำทาง โรงพยาบาลเพชรเวช","13.7425043","100.5941523"
"10174247","ป้ายรถประจำทาง ธนาคารกรุงไทย สาขาถนนเจริญนคร","13.7118609","100.500438"
"10174246","ป้ายรถประจำทาง","13.8113359","100.688566"
"10174245","ป้ายรถประจำทาง","14.00051273","100.6145782512"
"10174244","ป้ายรถประจำทาง การไฟฟ้าย่อยคลองตัน","13.7418399","100.6014181"
"10174243","ป้ายรถประจำทาง เดอะมอลล์ท่าพระ","13.7136941","100.4784558"
"10174242","ป้ายรถประจำทาง โรงพยาบาลจิตตเวช","13.7665276","100.3286572"
"10174241","ป้ายรถประจำทาง","13.8133353","100.6873064"
"10174240","ป้ายรถประจำทาง ซอยเจริญนคร 66","13.7007941","100.4874684"
"10174239","ป้ายรถประจำทาง ท่าช้างวังหลวง","13.7519356","100.4893215"
"10174238","ป้ายรถประจำทาง","13.7278584068","100.748283746"
"10174237","ป้ายรถประจำทาง ซอยราษฎร์บูรณะซอย 6","13.68943","100.4887021"
"10174236","ป้ายรถประจำทาง","13.8160076","100.6864112"
"10174235","ป้ายรถประจำทาง","13.817767","100.6845833"
"10174234","ป้ายรถประจำทาง","13.8188518","100.5137145"
"10174233","ป้ายรถประจำทาง","13.822058","100.6799367"
"10174232","ป้ายรถประจำทาง","13.8194932","100.5116881"
"10174231","ป้ายรถประจำทาง","13.8128567","100.6944522"
"10174230","ป้ายรถประจำทาง ซอยรามคำแหง 26/1","13.7609371","100.6308718"
"10174229","ป้ายรถประจำทาง ซอยติวานนท์ 8","13.8503063","100.5161549"
"10174228","ป้ายรถประจำทาง ตรงข้ามหมู่บ้านมณียา","13.8697786","100.4708463"
"10174227","ป้ายรถประจำทาง","13.8247856","100.6772307"
"10174226","ป้ายรถประจำทาง แยกทองหล่อเหนือ","13.7439736","100.5889091"
"10174225","ป้ายรถประจำทาง ซอยสุวินทวงศ์ 38","13.8109385","100.7973258"
"10174224","ป้ายรถประจำทาง โรงแรมกู๊ดอินน์","13.6879046","100.4915766"
"10174223","ป้ายรถประจำทาง สถานเสาวภา","13.731568","100.5321667"
"10174222","ป้ายรถประจำทาง แยกบุคคโล","13.6775495179","100.5137165982"
"10174221","ป้ายรถประจำทาง โรงเรียนศรีอยุธยา","13.7573842","100.5370997"
"10174220","ป้ายรถประจำทาง","13.8602517","100.51443"
"10174219","ป้ายรถประจำทาง เทเวศร์","13.7704845","100.5043675"
"10174218","ป้ายรถประจำทาง ถนนพุทธมณฑล สาย 4","13.7817622","100.3280422"
"10174217","ป้ายรถประจำทาง ไปรษณีย์ห้วยขวาง","13.7681736","100.5864194"
"10174216","ป้ายรถประจำทาง","13.8311513","100.6704276"
"10174215","ป้ายรถประจำทาง แยกเหม่งจ๋าย","13.7693069","100.5882026"
"10174214","ป้ายรถประจำทาง มหาวิทยาลัยจุฬาลงกรณ์ 2","13.7359245","100.5293852"
"10174213","ป้ายรถประจำทาง หมู่บ้านลดาวัลย์","13.7881162","100.3415593"
"10174212","ป้ายรถประจำทาง หมู่บ้านสุวินทวงศ์","13.8115474","100.791815"
"10174211","ป้ายรถประจำทาง ตีนสะพาน","13.7691912","100.5906126"
"10174210","ป้ายรถประจำทาง","13.7781280664","100.5249611836"
"10174209","ป้ายรถประจำทาง TOYOTA","13.7684771","100.5947305"
"10174208","ป้ายรถประจำทาง ซอยอ่อนนุช 59","13.7197604817","100.6745677835"
"10174207","ป้ายรถประจำทาง ปั๊ม ESSO","13.7679239","100.5973864"
"10174206","ป้ายรถประจำทาง ตรงข้ามปั๊มน้ำมันสยามสหบริการ จำกัด (มหาชน)","13.6856176","100.4938891"
"10174205","ป้ายรถประจำทาง ปั๊ม ปตท.","13.7672714","100.6009364"
"10174204","ป้ายรถประจำทาง เอกมัย-รามอินทรา 2","13.7655168","100.6005784"
"10174203","ป้ายรถประจำทาง ตลาดนนท์","13.8859654461","100.4599223518"
"10174202","ป้ายรถประจำทาง ตรงข้ามซอยพระราชวิริยาภรณ์ 16","13.6679283","100.5218308"
"10174201","ป้ายรถประจำทาง","13.9116398","100.497461"
"10174200","ป้ายรถประจำทาง","13.8339803","100.6675308"
"10174199","ป้ายรถประจำทาง โรงเรียนชาญกิจวิทยา","13.7172083","100.4507533"
"10174198","ป้ายรถประจำทาง","13.8358799","100.6656083"
"10174197","ป้ายรถประจำทาง","13.5636687807","100.6822758969"
"10174196","ป้ายรถประจำทาง","13.8365502","100.6614492"
"10174195","ป้ายรถประจำทาง คลินิคศูนย์แพทย์พัฒนา","13.7631969","100.5987653"
"10174194","ป้ายรถประจำทาง","13.8338846","100.660321"
"10174193","ป้ายรถประจำทาง หมู่บ้านหรรษา","13.7047113","100.335134"
"10174192","ป้ายรถประจำทาง","13.8326804249","100.5233791711"
"10174191","ป้ายรถประจำทาง ร้านอาหารบ้านไม้","13.7634704","100.5995163"
"10174190","ป้ายรถประจำทาง เทพลีลาแยก 14","13.7659279","100.6014784"
"10174189","ป้ายรถประจำทาง รพ.เจริญกรุง","13.6960633","100.4957721"
"10174188","ป้ายรถประจำทาง ตรงข้ามสำนักงานเขตวังทองหลาง","13.7826849","100.6152688"
"10174187","ป้ายรถประจำทาง","13.7047586","100.3372413"
"10174186","ป้ายรถประจำทาง","13.8301678","100.6587587"
"10174185","ป้ายรถประจำทาง สถานีตำรวจคู่ขนานลอยฟ้า","13.7846519","100.3899386"
"10174184","ป้ายรถประจำทาง หมู่บ้านปรีชา(สุวินทวงศ์)","13.8118083","100.7884435"
"10174183","ป้ายรถประจำทาง โรงกลั่นประปา","13.7756156678","100.5298475587"
"10174182","ป้ายรถประจำทาง","13.7164009","100.6540034"
"10174181","ป้ายรถประจำทาง ศรีวรา","13.7664588","100.6031321"
"10174180","ป้ายรถประจำทาง","13.8852935","100.511897"
"10174179","ป้ายรถประจำทาง","13.7143055","100.6478008"
"10174178","ป้ายรถประจำทาง ซอยเพชรเกษม 48","13.7152232","100.4444758"
"10174177","ป้ายรถประจำทาง โรงงานพรมไทปิง","13.951383826","100.6187991804"
"10174176","ป้ายรถประจำทาง ตลาดท่าพระรุ่งเรือง","13.7285406","100.4787551"
"10174175","ป้ายรถประจำทาง หมู่บ้านอนันต์สามัคคี","13.8129577","100.7772215"
"10174174","ป้ายรถประจำทาง สุวินทวงศ์ 26","13.8138182","100.7684018"
"10174173","ป้ายรถประจำทาง บริษัทหินอ่อน","13.765142","100.6049767"
"10174172","ป้ายรถประจำทาง ตรงข้ามโรงเรียนเสริมปัญญา","13.6985182205","100.4984362349"
"10174171","ป้ายรถประจำทาง","13.8281057","100.6578413"
"10174170","ป้ายรถประจำทาง หน้าบริษัทหัวไผ่เซ็นเตอร์ จำกัด","13.6672009","100.5231761"
"10174169","ป้ายรถประจำทาง รามคำแหง ซอย 50","13.762263","100.642899"
"10174168","ป้ายรถประจำทาง หมู่บ้านคุ้มเกล้า","13.8124679","100.7822136"
"10174167","ป้ายรถประจำทาง สภาวิศวกร","13.7639789","100.6063494"
"10174166","ป้ายรถประจำทาง วัดหลวงพ่อเณร","13.7751151696","100.5620710313"
"10174165","ป้ายรถประจำทาง สุนทรีย์พระประแดง","13.6647122","100.5268293"
"10174164","ป้ายรถประจำทาง","13.7214089028","100.6422907329"
"10174163","ป้ายรถประจำทาง","13.59788","100.5840394"
"10174162","ป้ายรถประจำทาง","13.8261595","100.6570216"
"10174161","ป้ายรถประจำทาง","13.5937576","100.5701415"
"10174160","ป้ายรถประจำทาง วัดใหญ่","13.5938623","100.5655883"
"10174159","ป้ายรถประจำทาง","13.8240235","100.6561103"
"10174158","ป้ายรถประจำทาง","13.601786","100.5583093"
"10174157","ท่าสาย 1","13.6939153942","100.4933005572"
"10174156","ป้ายรถประจำทาง บ้านพักตำรวจน้ำ","13.6071183","100.5533217"
"10174155","ป้ายรถประจำทาง หมู่บ้านอยู่สบาย","13.740416","100.6858253"
"10174154","ป้ายรถประจำทาง","13.7800968","100.5215291"
"10174153","ป้ายรถประจำทาง ชุมชนรุ่งมณีพัฒนา","13.7606321","100.6113021"
"10174152","ป้ายรถประจำทาง","13.8217119","100.6551216"
"10174151","ป้ายรถประจำทาง","13.7812530703","100.5194131902"
"10174150","ป้ายรถประจำทาง วิทยาลัยอินทราชัย","13.762754","100.607893"
"10174149","ป้ายรถประจำทาง","13.7823331","100.5173241"
"10174148","ป้ายรถประจำทาง เพชรเกษม 77/7","13.7060543","100.3513728"
"10174147","ป้ายรถประจำทาง มัสยิดดารุนาฮีม","13.7400325","100.6880435"
"10174146","ป้ายรถประจำทาง หมูกระทะ","13.7613202","100.6096244"
"10174145","ป้ายรถประจำทาง","13.820142","100.6544095"
"10174144","ป้ายรถประจำทาง ซอยเคเบิ้ล","13.6130722","100.5479305"
"10174143","ป้ายรถประจำทาง","13.6268472068","100.535076957"
"10174142","ป้ายรถประจำทาง","13.7743539","100.6689437"
"10174141","ป้ายรถประจำทาง ร้านกรุงธนเมืองแก้ว","13.7899069","100.4776052"
"10174140","ป้ายรถประจำทาง ฝ่ายช่างท่าอากาศดอนเมือง","13.9275893","100.6056335"
"10174139","ป้ายรถประจำทาง แยกบางยี่เรือ","13.727191","100.4869552"
"10174138","ป้ายรถประจำทาง บ้านราชวิถี","13.7696884255","100.5272212466"
"10174137","ป้ายรถประจำทาง ซอยหมู่บ้านจันทร์บัวสาย","13.815853","100.7483101"
"10174136","ป้ายรถประจำทาง โรงเรียนสอนคอมพิวเตอร์แสควร์-ลาดพร้าว","13.774647","100.6297206"
"10174135","ป้ายรถประจำทาง ห้างเซ็นทรัลพระราม 2","13.6761722357","100.3195967946"
"10174134","ป้ายรถประจำทาง โชว์รูมโตโยต้า","13.815956","100.746463"
"10174133","ป้ายรถประจำทาง ซอยจรัสลาภ 69","13.7879925","100.4836332"
"10174132","ป้ายรถประจำทาง สวนอาหารหนองคาย","13.8685642","100.4896615"
"10174131","ป้ายรถประจำทาง","13.8176348","100.6533553"
"10174130","ป้ายรถประจำทาง","13.7268033","100.4957481"
"10174129","ป้ายรถประจำทาง ตรงข้ามวัดเทพลีลา","13.758081116","100.6147615666"
"10174128","ป้ายรถประจำทาง","13.8580949","100.6266265"
"10174127","ป้ายรถประจำทาง ซอยกรุงเทพ-นนทบุรี 34","13.8195664","100.5324955"
"10174126","ป้ายรถประจำทาง หมู่บ้านนพรัตน์","13.8141261","100.6517894"
"10174125","ป้ายรถประจำทาง หมู่บ้านปัฐวิกรณ์","13.8123203","100.6510066"
"10174124","ป้ายรถประจำทาง","13.8982078","100.5891386"
"10174123","ป้ายรถประจำทาง","13.754901262","100.5163021129"
"10174122","ป้ายรถประจำทาง วัดชังเรือง","13.6148313","100.5463953"
"10174121","ป้ายรถประจำทาง ซอยนวลจันทร์","13.8104581","100.650237"
"10174120","ป้ายรถประจำทาง","13.6288282668","100.5336537985"
"10174119","ป้ายรถประจำทาง รามคำแหง ซอย 151/1","13.7847422","100.68796"
"10174118","ป้ายรถประจำทาง ตรงข้ามซอยพัชราพา","13.8891404","100.5839184"
"10174117","ป้ายรถประจำทาง","13.8053685","100.6478773"
"10174116","ป้ายรถประจำทาง","13.7831176","100.5159589"
"10174115","ป้ายรถประจำทาง","13.7855379","100.6895494"
"10174114","ป้ายรถประจำทาง หน้าโตโยต้าภูมิพัฒนา","13.8174483","100.744284"
"10174113","ป้ายรถประจำทาง","13.7848378","100.5128344"
"10174112","ป้ายรถประจำทาง แยกถนนนิมิตรใหม่","13.8196976","100.7414272"
"10174111","ป้ายรถประจำทาง วัดบางเตย","13.8024713","100.6478804"
"10174110","ป้ายรถประจำทาง","13.7383592","100.7463234"
"10174109","ป้ายรถประจำทาง","13.7990503","100.6494454"
"10174108","ป้ายรถประจำทาง","13.72279","100.7463412"
"10174107","ป้ายรถประจำทาง มหาวิทยาลัยเอเชียอาคเนย์","13.7064165","100.3564492"
"10174106","ป้ายรถประจำทาง บ้านพักคนชราบางแค","13.7124804","100.4274029"
"10174105","ป้ายรถประจำทาง วัดสระเกศ","13.7528134","100.5090306"
"10174104","ป้ายรถประจำทาง","13.7226672","100.7437626"
"10174103","ป้ายรถประจำทาง โรงแรมรอยัลปริ๊นซ์โฮเต็ล","13.7498148","100.5566807"
"10174102","ป้ายรถประจำทาง โรงเรียนวัดแสนสุข","13.8192936","100.7432095"
"10174101","ป้ายรถประจำทาง","13.7225789","100.7384558"
"10174100","ป้ายรถประจำทาง","13.7940562","100.6517219"
"10174099","ป้ายรถประจำทาง ยิบซั่ม","13.7571124422","100.53851836"
"10174098","ป้ายรถประจำทาง แยกถนนนิมิตรใหม่","13.820009","100.7413432"
"10174097","ป้ายรถประจำทาง ศรีสวัสศิริ ซอย 2","13.7224368","100.7337192"
"10174096","ป้ายรถประจำทาง","13.7856069854","100.5113543372"
"10174095","ป้ายรถประจำทางแยกนิด้า","13.7735465","100.653973"
"10174094","ป้ายรถประจำทาง โรงเรียนโสมาภา","13.7897549","100.6512251"
"10174093","ป้ายรถประจำทาง","13.7224285","100.7311149"
"10174092","ป้ายรถประจำทาง","13.7873907","100.649735"
"10174091","ป้ายรถประจำทาง","13.7223679","100.7286312"
"10174090","ป้ายรถประจำทาง ซอยราชวิถี 32","13.7731835","100.5201172"
"10174089","ป้ายรถประจำทาง บ้านระยอง","13.5826776","100.5254303"
"10174088","ป้ายรถประจำทาง","13.7222705","100.7192716"
"10174087","ป้ายรถประจำทาง เขาดิน","13.7744734","100.5172464"
"10174086","ป้ายรถประจำทาง หมู่บ้านสยามนิเวศน์","13.5844495","100.5249974"
"10174085","ป้ายรถประจำทาง กล้วยน้ำไทแสตนเลส","13.7130494562","100.5913469037"
"10174084","ป้ายรถประจำทาง","13.8677104","100.5721394"
"10174083","ป้ายรถประจำทาง หมู่บ้านประชาสามัคคี","13.58749","100.52399"
"10174082","ป้ายรถประจำทาง","13.8200538","100.654668"
"10174081","ป้ายรถประจำทาง ซอยลาดกระบัง ๑๔/๑","13.7222351","100.7160212"
"10174080","ป้ายรถประจำทาง โรงงานยาคูล","13.8575531","100.5665769"
"10174079","ป้ายรถประจำทาง ซอยหัวถนน","13.5937221","100.5199627"
"10174078","ป้ายรถประจำทาง","13.7161357","100.5953351"
"10174077","ป้ายรถประจำทาง อู่มีนบุรี","13.8194856","100.7353836"
"10174076","ป้ายรถประจำทาง","13.7222298","100.7133902"
"10174075","ป้ายรถประจำทาง โรงพยาบาลวิภาวดี","13.8467847","100.5607644"
"10174074","ป้ายรถประจำทาง ห้างจัสโก้พระโขนง","13.7192123","100.5958272"
"10174073","ป้ายรถประจำทาง เรือนจำพิเศษมีนบุรี","13.8189097","100.7326601"
"10174072","ป้ายรถประจำทาง กรมที่ดินบางเขน","13.8599889","100.5873725"
"10174071","ป้ายรถประจำทาง","13.7221549","100.710879"
"10174070","ป้ายรถประจำทาง ตลาดเพชรเกษม","13.7069595","100.3629972"
"10174069","ป้ายรถประจำทาง หมู่บ้านวังทอง","13.7836596","100.6471363"
"10174068","ป้ายรถประจำทาง ห้างเดอะมอลล์บางแค","13.7111465152","100.4106337878"
"10174067","ป้ายรถประจำทาง","13.7325147688","100.5458475452"
"10174066","ป้ายรถประจำทาง","13.8070478727","100.5716268916"
"10174065","ป้ายรถประจำทาง ห้างคาร์ฟูร์เพชรเกษม","13.7072582","100.3667848"
"10174064","ป้ายรถประจำทาง ต่างระดับกาญจนาภิเศก","13.710928","100.4080332"
"10174063","ป้ายรถประจำทาง","13.7222314","100.7224128"
"10174062","ป้ายรถประจำทาง มหาวิทยาลัยเกริก","13.8723369","100.6003031"
"10174061","ป้ายรถประจำทาง","13.7220324","100.7072842"
"10174060","ป้ายรถประจำทาง ซอยสายลม","13.7835214","100.5458905"
"10174059","ป้ายรถประจำทาง","13.7218142","100.7036471"
"10174058","ป้ายรถประจำทาง การเคหะคลองจั่น","13.7817441","100.6458339"
"10174057","ป้ายรถประจำทาง","13.6084047","100.5126634"
"10174056","ป้ายรถประจำทาง","13.6812791805","100.6098832719"
"10174055","ป้ายรถประจำทาง","13.7213627","100.6958452"
"10174054","ป้ายรถประจำทาง","13.6794121","100.6091385"
"10174053","ป้ายรถประจำทาง","13.8294485752","100.6717948208"
"10174052","ป้ายรถประจำทาง ตรงข้ามบางบอนวิลล์","13.664664","100.4059889"
"10174051","ป้ายรถประจำทาง ห้างตั้งฮั่วเส็งธนบุรี","13.7866677","100.4887267"
"10174050","ป้ายรถประจำทาง","13.6115646","100.5105378"
"10174049","ป้ายรถประจำทาง","13.72121","100.6931392"
"10174047","ป้ายรถประจำทาง","13.603953","100.51507"
"10174046","ป้ายรถประจำทาง ปรีดีพนมยงค์ ซอย 18","13.7226573","100.5959012"
"10174045","ป้ายรถประจำทาง","13.661335","100.6619475"
"10174044","ป้ายรถประจำทาง สนามกีฬาคลองจั่น","13.7781966","100.6443562"
"10174043","ป้ายรถประจำทาง","13.7764554218","100.5129966092"
"10174042","ป้ายรถประจำทาง","13.6636315","100.6573049"
"10174041","ป้ายรถประจำทาง ห้างเมเจอร์รัชโยธิน","13.8279946","100.5685653"
"10174040","ป้ายรถประจำทาง ตั้งฮัวเส็งธนบุรี","13.787295","100.4867959"
"10174039","ป้ายรถประจำทาง ตลาดบางปะกอก","13.6769512","100.499987"
"10174038","ป้ายรถประจำทาง สนามกอล์ฟนที","13.6773976","100.4068013"
"10174037","ป้ายรถประจำทาง","13.8248618","100.6763637"
"10174036","ป้ายรถประจำทาง ซอยจรัสลาภ 69","13.7883164","100.4837762"
"10174035","ป้ายรถประจำทาง หมู่บ้านชมเดือน อ่อนนุช 59/1","13.7201787192","100.677450335"
"10174034","ป้ายรถประจำทาง ตรงข้ามศูนย์ภาษา ซีพี","13.7829990032","100.4984853811"
"10174033","ป้ายรถประจำทาง สถานีไฟฟ้าย่อยบางกอกน้อย","13.7095837","100.3902989"
"10174032","ป้ายรถประจำทาง","13.7210159","100.6894817"
"10174031","ป้ายรถประจำทาง","13.7072572","100.3694781"
"10174030","ป้ายรถประจำทาง","13.7207835435","100.6844228721"
"10174029","ป้ายรถประจำทาง โรงเรียนบ้านบางกะปิ","13.7719172","100.6471001"
"10174028","ป้ายรถประจำทาง ปรีดีพนมยงค์ 24","13.7252056","100.5959219"
"10174027","ป้ายรถประจำทาง","13.7205009","100.6804986"
"10174026","ป้ายรถประจำทาง ช่อง 3","13.7067703","100.3606207"
"10174025","ป้ายรถประจำทาง","13.6056853","100.5140112"
"10174024","ป้ายรถประจำทาง","13.7266397092","100.4942671652"
"10174023","ป้ายรถประจำทาง","13.7694717","100.6473368"
"10174022","ป้ายรถประจำทาง","13.7456056312","100.4945209824"
"10174021","ป้ายรถประจำทาง ตลาดบางกะปิ","13.7662949","100.6467557"
"10174020","ป้ายรถประจำทาง ปากทางคลองขวาง","13.7072577","100.3738996"
"10174019","ป้ายรถประจำทาง ซอยราชครู","13.776949","100.5435293"
"10174018","ป้ายรถประจำทาง ตลาดวรวิทย์","13.7065741","100.3742053"
"10174017","ป้ายรถประจำทาง ซอยประชาอุทิศ 89/2","13.6289985","100.5045244"
"10174016","ป้ายรถประจำทาง ตลาดกรุงธน","13.7842039","100.4949902"
"10174015","ป้ายรถประจำทาง ปรีดีพนมยงค์ 38","13.7306384","100.5966773"
"10174014","ป้ายรถประจำทาง โรงพยาบาลราษฎร์บูรณะ","13.6773249","100.5028759"
"10174013","ป้ายรถประจำทาง ร้านกรุงธนเมืองแก้ว","13.7902025","100.4776252"
"10174012","ป้ายรถประจำทาง ซอยสุขาภิบาล 6","13.6291099","100.7187876"
"10174011","ป้ายรถประจำทาง ครัวคุณสุ","13.8228809","100.5329083"
"10174010","ป้ายรถประจำทาง","13.7762982498","100.5692431409"
"10174009","ป้ายรถประจำทาง","13.7676429","100.6425702"
"10174008","ป้ายรถประจำทาง ธนบุรีคาเฟ่","13.7278677","100.4999147"
"10174007","ป้ายรถประจำทาง บ้านครูน้อย","13.6785251","100.5032123"
"10174006","ป้ายรถประจำทาง","13.6683107","100.6344438"
"10174005","ป้ายรถประจำทาง ปรีดีพนมยงค์ ซอย 44","13.7349202","100.5977765"
"10174004","ป้ายรถประจำทาง แยกบางนา","13.6733283","100.6085292"
"10174003","ป้ายรถประจำทาง สุเหร่าทางควาย","13.7192093","100.6711133"
"10174002","ป้ายรถประจำทาง หมู่บ้านผาสุกนิเวศน์","13.7275637","100.656521"
"10174001","ป้ายรถประจำทาง ธนาคารไทยพาณิชย์บางแค","13.7111692","100.4135642"
"10174000","ป้ายรถประจำทาง ตรงข้ามซอยสันติสุข 28","13.8507169","100.8818072"
"10173999","ป้ายรถประจำทาง ช่อง 3","13.7069859","100.3602684"
"10173998","ป้ายรถประจำทาง ปรีดีพนมยงค์ ซอย 28","13.7264938","100.5959947"
"10173997","ป้ายรถประจำทาง โรงเรียนเตรียมศึกษาบางกะปิ","13.7736165","100.6319164"
"10173996","ป้ายรถประจำทาง วัดชม","13.6216017","100.5398077"
"10173995","ป้ายรถประจำทาง สถานีตำรวจตลิ่งชัน","13.7809576303","100.4449866317"
"10173994","ป้ายรถประจำทาง โฮมโปรบางพลีใหญ่","13.633444","100.7110852"
"10173993","ป้ายรถประจำทาง ตรงข้ามบ้านพักกองทัพบก","13.8644118","100.5902489"
"10173992","ป้ายรถประจำทาง บริษัทพัฒนาการถาวร","13.7229507","100.6583347"
"10173991","ป้ายรถประจำทาง","13.7282481","100.5961046"
"10173990","ป้ายรถประจำทาง","13.7081683511","100.4512496911"
"10173989","ป้ายรถประจำทาง วัดไร่ขิง","13.7414489","100.2592042"
"10173988","ป้ายรถประจำทาง คริสจักรนาซารีน","13.8013272","100.6907828"
"10173987","ป้ายรถประจำทาง คลองสาน","13.7279708","100.5087902"
"10173986","ป้ายรถประจำทาง ซอยอินทปัจ 9","13.6977329","100.3783876"
"10173985","ป้ายรถประจำทาง สุขุมวิท ซอย 20","13.7355467099","100.5627795253"
"10173984","ป้ายรถประจำทาง ตรงข้ามโรงเรียนสอนคอมพิวเตอร์แสควร์-ลาดพร้าว","13.7747786","100.6298193"
"10173983","ป้ายรถประจำทาง ซอยรางน้ำ","13.7612968163","100.5360890844"
"10173982","ป้ายรถประจำทาง โรงเรียนอนุบาลบ้านโดม","13.6343963","100.5028535"
"10173981","ป้ายรถประจำทาง ซอยเอกชัย 33 แยก 1","13.6374229","100.3707977"
"10173980","อู่มีนบุรี","13.8146123033","100.7282513769"
"10173979","ป้ายรถประจำทาง ท่าวัดสุวรรณ","13.7238482","100.5090077"
"10173978","ป้ายรถประจำทาง กรมแพทย์ทหารบก","13.759946","100.5353617"
"10173977","ป้ายรถประจำทาง หมู่บ้านฝนทอง","13.8834273","100.6014693"
"10173976","ป้ายรถประจำทาง","13.6361549","100.5022538"
"10173975","ป้ายรถประจำทาง หมู่บ้านลลิลวิลล์","13.6393993","100.3731911"
"10173974","ป้ายรถประจำทาง สวนจตุจักร 2","13.8126662046","100.7253089183"
"10173973","ป้ายรถประจำทาง อิสลามวิทยาลัยแห่งประเทศไทย","13.6380741","100.5012409"
"10173972","ป้ายรถประจำทาง","13.6767838","100.6081085"
"10173971","ป้ายรถประจำทาง","13.7336177873","100.5264690754"
"10173970","ป้ายรถประจำทาง โรงเรียนวัดไร่ขิง","13.7404537","100.2600775"
"10173969","ป้ายรถประจำทาง ซอยอินทปัจ 11","13.6955533","100.379413"
"10173968","ป้ายรถประจำทาง","13.7147703","100.53963"
"10173967","ป้ายรถประจำทาง โรงพยาบาลเซ็นทรัล","13.8887675","100.6045937"
"10173966","ป้ายรถประจำทาง แยกมีนบุรี","13.8127747","100.7189256"
"10173965","ป้ายรถประจำทาง ประตูน้ำคอมเพล็ก","13.7496026","100.5441393"
"10173964","ป้ายรถประจำทาง โรงเรียนเขียนแบบก่อสร้างและเครื่องกล","13.7399309","100.5994658"
"10173963","ป้ายรถประจำทาง ตรงข้ามศึกษาภัณฑ์ไร่ขิง","13.740769","100.2668059"
"10173962","ป้ายรถประจำทาง ร้านอาหารทิพวรรณ","13.7761832","100.6272857"
"10173961","ป้ายรถประจำทาง โรงเรียนเศรษฐบุตรบำเพ็ญ","13.8127845","100.7140235"
"10173960","ป้ายรถประจำทาง","13.6896906879","100.4323910996"
"10173959","ป้ายรถประจำทาง ซอยสุดสุขถาวร","13.7427459","100.270023"
"10173958","ป้ายรถประจำทาง โรงเรียนภาษาอังกฤษสันติ","13.7773893","100.6252488"
"10173957","ป้ายรถประจำทาง ร้านอาหารแพน้ำ","13.8128226","100.7111214"
"10173956","ป้ายรถประจำทาง","13.7833344","100.6471454"
"10173955","ป้ายรถประจำทาง","13.7926942","100.6525721"
"10173954","ป้ายรถประจำทาง","13.8123846184","100.6876616603"
"10173953","ป้ายรถประจำทาง","13.7876665","100.6068398"
"10173952","ป้ายรถประจำทาง","13.7398645873","100.5566417111"
"10173951","ป้ายรถประจำทาง พัฒนาการ ซอย 70","13.7295416","100.6555433"
"10173950","ป้ายรถประจำทาง","13.7887827","100.6048452"
"10173949","ป้ายรถประจำทาง","13.8128798","100.6915778"
"10173948","ป้ายรถประจำทาง","13.7217691361","100.5078581189"
"10173947","ป้ายรถประจำทาง เกาะข่า","13.8127894","100.7054917"
"10173946","sukumvit 3","13.7418453161","100.5538688612"
"10173945","ป้ายรถประจำทาง","13.6637953892","100.5171635145"
"10173944","ป้ายรถประจำทาง","13.730469","100.6534422"
"10173943","ป้ายรถประจำทาง โรงพยาบาลบางปะกอก 9","13.6814715","100.4745792"
"10173942","ป้ายรถประจำทาง","13.6577037","100.5196167"
"10173941","ป้ายรถประจำทาง","13.722719","100.5369612"
"10173940","ป้ายรถประจำทาง ซอยประชาร่วมใจ","13.7443206","100.2729264"
"10173939","ป้ายรถประจำทาง","13.7443168","100.5424752"
"10173938","ป้ายรถประจำทาง สำนักงานเขตทวีวัฒนา แยกซ้้าย","13.7882449","100.3333602"
"10173937","ป้ายรถประจำทาง","13.7441354649","100.6024985818"
"10173936","ป้ายรถประจำทาง","13.7323343","100.6495711"
"10173935","ป้ายรถประจำทาง โรงเรียนสัจวัฒน์","13.72121","100.501596"
"10173934","ป้ายรถประจำทาง ตรงข้ามวัดท่าพูด","13.7469968","100.2770061"
"10173933","ป้ายรถประจำทาง","13.7338846","100.6462529"
"10173932","ป้ายรถประจำทาง ตรงข้ามโรงเรียนเสนาธิการทหารอากาศ","13.905808","100.6146321"
"10173931","ป้ายรถประจำทาง ตรงข้ามปั๊มบางจากซอยไร่ขิง","13.7565426","100.2826583"
"10173930","ป้ายรถประจำทาง สำนักงานเขตวังทองหลาง","13.7829501","100.6151987"
"10173929","ป้ายรถประจำทาง","13.7349561","100.6435633"
"10173928","ป้ายรถประจำทาง ซอยอนามัย","13.6791227","100.4969697"
"10173927","อู่ 517","13.6963814663","100.8532750402"
"10173926","ป้ายรถประจำทาง ซอยไร่ขิง 42","13.7623235","100.2854777"
"10173925","ป้ายรถประจำทาง","13.8129304515","100.7033954205"
"10173924","ป้ายรถประจำทาง แยกบ้านแขก","13.7091492759","100.8257922594"
"10173923","ป้ายรถประจำทาง ประชาอุทิศ ซอย 51","13.6467782","100.4966942"
"10173922","ป้ายรถประจำทาง","13.7855027","100.610666"
"10173921","ป้ายรถประจำทาง","13.8129185","100.6995909"
"10173920","ป้ายรถประจำทาง ปณ. ลาดพร้าว","13.7898112","100.6028973"
"10173919","ป้ายรถประจำทาง","13.8161844","100.6530137"
"10173918","ป้ายรถประจำทาง หมู่บ้านเคหะนคร 3","13.7364038","100.6354141"
"10173917","ป้ายรถประจำทาง","13.7368438","100.6317176"
"10173916","ป้ายรถประจำทาง ศึกษาภัณฑ์ลาดพร้าว","13.7912601","100.6003413"
"10173915","ป้ายรถประจำทาง การไฟฟ้าย่อยบางขุนเทียน","13.6535518","100.4253761"
"10173914","ป้ายรถประจำทาง ตรงข้ามตลาดดอนหวาย","13.7686966","100.2860099"
"10173913","ป้ายรถประจำทาง สถารทูตออสเตรเลีย","13.7136806416","100.8129307109"
"10173912","ป้ายรถประจำทาง","13.7371053","100.6293777"
"10173911","ป้ายรถประจำทาง หลังสวน","13.7179600913","100.8016962955"
"10173910","ป้ายรถประจำทาง ตรงข้ามหมู่บ้านเพชรวงแหวน","13.6519286","100.4055094"
"10173909","ป้ายรถประจำทาง สถานีตำรวจหัวหมาก","13.7607241","100.6273052"
"10173908","ป้ายรถประจำทาง ซอยเอกชัย 95/1","13.6608982","100.4023031"
"10173907","ป้ายรถประจำทาง อินทามะระ ซอย 28 / 1","13.7885704","100.5668568"
"10173906","ป้ายรถประจำทาง","13.719141239","100.798358378"
"10173905","ป้ายรถประจำทาง โรงงานกะทิชาวเกาะ","13.7295908","100.3295659"
"10173904","ป้ายรถประจำทาง","13.7373069","100.627244"
"10173903","ป้ายรถประจำทาง การไฟฟ้าคลองเตย","13.7033977902","100.5456728136"
"10173902","ป้ายรถประจำทาง","13.720177109","100.7959445703"
"10173901","ป้ายรถประจำทาง โรงเรียนอนุบาลสายทิพย์","13.7368033","100.6205404"
"10173900","ป้ายรถประจำทาง กรมแผนที่ทหาร","13.7928901","100.5973979"
"10173899","ป้ายรถประจำทาง อินทามะระ ซอย 32","13.7864503","100.5670063"
"10173898","ป้ายรถประจำทาง","13.6524108","100.6782979"
"10173897","ป้ายรถประจำทาง ตรงข้ามกองบัญชาการกองทัพอากาศไทย","13.9198988","100.6229483"
"10173896","ป้ายรถประจำทาง ตรงข้ามศูนย์คุมอง","13.6710482","100.5058358"
"10173895","ป้ายรถประจำทาง แยกบางนา","13.6723822","100.6066095"
"10173894","ป้ายรถประจำทาง A.T. Siam","13.6604872","100.4056738"
"10173893","ป้ายรถประจำทาง สมเด็จพระปิ่นเกล้า 3","13.7653553","100.4879836"
"10173892","ป้ายรถประจำทาง","13.6899543","100.5043798"
"10173891","ป้ายรถประจำทาง ซอยเพชรเกษม 19/1","13.7211795971","100.7930144062"
"10173890","ป้ายรถประจำทาง สำนักงานเขตบางบอน","13.6648077","100.4091929"
"10173889","ป้ายรถประจำทาง","13.7221796","100.7874058"
"10173888","ป้ายรถประจำทาง","13.7370372","100.6234708"
"10173887","ป้ายรถประจำทาง","13.7952169167","100.5933060914"
"10173886","ป้ายรถประจำทาง","13.7308807","100.5965455"
"10173885","ป้ายรถประจำทาง","13.7148775","100.5765825"
"10173884","ป้ายรถประจำทาง ซอยเอกชัย 83/6","13.6742186","100.4264237"
"10173883","ป้ายรถประจำทาง","13.7980052","100.5882273"
"10173882","ป้ายรถประจำทาง","13.8300427","100.6590436"
"10173881","ป้ายรถประจำทาง แยกลำลูกกา","13.9494948","100.6225367"
"10173880","ป้ายรถประจำทาง","13.8000753","100.5846952"
"10173879","ป้ายรถประจำทาง ตรงข้ามโรงพยาบาลบางบอน","13.6760737","100.4298985"
"10173878","ป้ายรถประจำทาง","13.7132825","100.5800995"
"10173877","ป้ายรถประจำทาง โรงพยาบาลลาดกระบัง","13.722049","100.784157"
"10173876","ป้ายรถประจำทาง","13.9336884","100.6255623"
"10173875","ป้ายรถประจำทาง","13.8324193","100.6599472"
"10173874","ป้ายรถประจำทาง ท่ารถสาย 92 พัฒนาการ","13.7365179","100.6159736"
"10173873","ป้ายรถประจำทาง ศูนย์สุขภาพชุมชน","13.7149847","100.3301992"
"10173872","ป้ายรถประจำทาง","13.7219666","100.7770622"
"10173871","ป้ายรถประจำทาง วรจักร","13.7477163","100.5067311"
"10173870","ป้ายรถประจำทาง","13.7462207","100.504881"
"10173869","ป้ายรถประจำทาง ไทรม้า","13.870287036","100.4715378019"
"10173868","ป้ายรถประจำทาง","13.688721","100.5132253"
"10173867","ป้ายรถประจำทาง","13.7068198","100.5240313"
"10173866","ป้ายรถประจำทาง","13.7219337","100.7746794"
"10173865","ป้ายรถประจำทาง ตรงข้ามตลาดน้ำดอนหวาย","13.7735171","100.283658"
"10173864","ป้ายรถประจำทาง","13.707426","100.5209662"
"10173863","ป้ายรถประจำทาง ซอยตาหรั่ง","13.870346","100.4690609"
"10173862","ป้ายรถประจำทาง ศูนย์อีซูซุพัฒนาการ","13.7364572","100.6127793"
"10173861","ป้ายรถประจำทาง ตลาดสินสมบูรณ์","13.71392","100.3301368"
"10173860","ป้ายรถประจำทาง","13.7043071","100.5292878"
"10173859","ป้ายรถประจำทาง","13.7079155","100.5181898"
"10173858","ป้ายรถประจำทาง จักรวรรดิ","13.746206","100.5060097"
"10173857","ป้ายรถประจำทาง","13.7029185","100.5300197"
"10173856","ป้ายรถประจำทาง","13.7218624","100.7715452"
"10173855","ป้ายรถประจำทาง อินทามะระ ซอย 40","13.783489","100.5670595"
"10173854","ป้ายรถประจำทาง แยกตรวจคนเข้าเมือง จ.นครปฐม","13.7865429","100.3035303"
"10173853","ป้ายรถประจำทาง สะพานยศเส","13.7481921","100.5198856"
"10173852","ป้ายรถประจำทาง ธนาคารกสิกรไทยพัฒนาการ","13.737795","100.6089495"
"10173851","ป้ายรถประจำทาง ตรงข้ามหมู่บ้านมณสินี (ซอยลาดกระบัง 11)","13.7218476","100.7688571"
"10173850","ป้ายรถประจำทาง โรงพยาบาลมิตรภาพ","13.7294498413","100.4943487541"
"10173849","ป้ายรถประจำทาง","13.6875597","100.5162874"
"10173848","ป้ายรถประจำทาง ซอยอนามัย","13.6789817","100.4966637"
"10173847","ป้ายรถประจำทาง สินดำรงค์","13.7471129","100.5017098"
"10173846","ป้ายรถประจำทาง","13.7200739058","100.5158327497"
"10173845","ป้ายรถประจำทาง","13.8017678141","100.5815985356"
"10173844","ป้ายรถประจำทาง","13.7520626","100.5353653"
"10173843","ป้ายรถประจำทาง","13.8028094","100.5797119"
"10173842","ป้ายรถประจำทาง เพอร์เฟคเพลส","13.7492593","100.6075064"
"10173841","ป้ายรถประจำทาง","13.7218184","100.7647636"
"10173840","ป้ายรถประจำทาง","13.7430190577","100.3565681062"
"10173839","ป้ายรถประจำทาง","13.9032016","100.5051841"
"10173838","ป้ายรถประจำทาง","13.7186919","100.5955276"
"10173837","ป้ายรถประจำทาง","13.8040124","100.5775202"
"10173836","ป้ายรถประจำทาง","13.7621123621","100.6394975085"
"10173835","ป้ายรถประจำทาง","13.7218041","100.7631677"
"10173834","ป้ายรถประจำทาง","13.731067743","100.3621536827"
"10173833","ป้ายรถประจำทาง","13.7313839631","100.5452762346"
"10173832","ป้ายรถประจำทาง","13.7222301","100.753564"
"10173831","ป้ายรถประจำทาง M.T.SQUARE","13.7869467","100.313974"
"10173830","ป้ายรถประจำทาง","13.732532032","100.515725357"
"10173829","ป้ายรถประจำทาง ซอยเคเบิ้ล","13.6130753","100.5475573"
"10173828","ป้ายรถประจำทาง ตลาดพระโขนง","13.7120419","100.5958837"
"10173827","the travellers","13.7973064","100.5743353"
"10173826","ป้ายรถประจำทาง หมอชิต","13.8018096","100.5530089"
"10173825","ป้ายรถประจำทาง แยกร่มเกล้า-ลาดกระบัง","13.7226629","100.7478132"
"10173824","ป้ายรถประจำทาง รพ.กรุงธน","13.7145276","100.4891639"
"10173823","ป้ายรถประจำทาง บ้านพักตำรวจน้ำ","13.606995","100.553095"
"10173822","ป้ายรถประจำทาง ทางหลวงพิเศษหมายเลข 338 (ถ.ปิ่นเกล้า - นครชัยศรี)","13.7879001","100.3475972"
"10173821","ป้ายรถประจำทาง ห้างพาต้าปิ่นเกล้า","13.7711633","100.4839589"
"10173820","ป้ายรถประจำทาง วิทยาลัยราชสุดา","13.7873299","100.3249576"
"10173819","ป้ายรถประจำทาง ซอยอธิบดี","13.8063548","100.5226723"
"10173818","ป้ายรถประจำทาง ปณ.อ้อมน้อย","13.7066818","100.2988593"
"10173817","ป้ายรถประจำทาง","13.9014324","100.5058355"
"10173816","ป้ายรถประจำทาง โรงพยาบาลสัตว์แชมป์เปี่ยน","13.7068299","100.2975857"
"10173815","ป้ายรถประจำทาง","13.7362471","100.5035674"
"10173814","ป้ายรถประจำทาง อู่โชคชัย","13.9694509","100.6192903"
"10173813","ป้ายรถประจำทาง","13.7303104743","100.5450831156"
"10173812","ป้ายรถประจำทาง สถานีตำรวจสุทธิสาร","13.7946489","100.5743315"
"10173811","ป้ายรถประจำทาง ตรงข้ามวิทยาลัยการชลประทาน","13.8984082","100.5070146"
"10173810","ป้ายรถประจำทาง ตรงข้ามอินทามะระ ซอย 59","13.7814051","100.5671455"
"10173809","ป้ายรถประจำทาง ซอยเจริญนคร 76","13.6968591","100.4862072"
"10173808","ป้ายรถประจำทาง","13.692943","100.5007028"
"10173807","ป้ายรถประจำทาง สุทธิสาร","13.7905641","100.57412"
"10173806","ป้ายรถประจำทาง บุคคโล","13.7036224","100.4872822"
"10173805","ป้ายรถประจำทาง วัดหลวงพ่อเณร","13.7751894014","100.5624820744"
"10173804","ป้ายรถประจำทาง ตึกเมืองไทยภัทร","13.7872064","100.5738644"
"10173803","ป้ายรถประจำทาง วัดบางกระดี่","13.993467","100.5507223"
"10173802","ป้ายรถประจำทาง วงเวียนใหญ่","13.7277721516","100.4937827761"
"10173801","ป้ายรถประจำทาง ซอยบ้านกลาง 2/9","14.0036895","100.5487557"
"10173800","ป้ายรถประจำทาง โรงแรมมณเฑียร","13.6894809","100.5082657"
"10173799","ป้ายรถประจำทาง","13.683025513","100.4125150547"
"10173798","ป้ายรถประจำทาง ซอยรัชดาภิเษก 15","13.7824249","100.5737267"
"10173797","ป้ายรถประจำทาง พุทธมณฑลสาย 3-บรมราชชนนี","13.7875473","100.3644236"
"10173796","ป้ายรถประจำทาง แยกทุ่งมังกร","13.7817303","100.4202058"
"10173795","ป้ายรถประจำทาง ซอยบ้านกลาง 2/7","14.0018076","100.5525843"
"10173794","ป้ายรถประจำทาง สนามหลวง","13.7552599","100.4943136"
"10173793","ป้ายรถประจำทาง สำนักงานสถิติแห่งชาติ","13.7566167","100.5142537"
"10173792","ป้ายรถประจำทาง สถานีขนส่งสายใต้","13.7811271","100.423074"
"10173791","ป้ายรถประจำทาง","13.7860423","100.3757799"
"10173790","ป้ายรถประจำทาง ตรงข้ามซอยเอกชัย 10/1","13.6974403","100.4591246"
"10173789","ป้ายรถประจำทาง ห้วยขวาง","13.7793374","100.5734865"
"10173788","ป้ายรถประจำทาง","13.6708788","100.6212661"
"10173787","ป้ายรถประจำทาง สวนลุมพินีป้ายแรก","13.7279852957","100.5447144442"
"10173786","ป้ายรถประจำทาง รามคำแหง ซอย 20","13.754405","100.6126502"
"10173785","ป้ายรถประจำทาง ซอยบ้านกลาง 2/5","13.9963683","100.5542423"
"10173784","ป้ายรถประจำทาง ซอยอิสรภาพ 22","13.732925","100.4920137"
"10173783","ป้ายรถประจำทาง มหาวิทยาลัยธรรมศาสตร์","13.7565121","100.4923209"
"10173782","ป้ายรถประจำทาง","13.7209950337","100.5264794968"
"10173781","ป้ายรถประจำทาง","13.6866717345","100.4262726937"
"10173780","ป้ายรถประจำทาง","13.7225975","100.5317443"
"10173779","ป้ายรถประจำทาง สนามฝึกซ้อมสอนขับรถ โรงเรียนสะพานมอญ","13.7352237485","100.4892403583"
"10173778","ป้ายรถประจำทาง สะพานกรุงธน","13.7790787603","100.5067167965"
"10173777","ป้ายรถประจำทาง บ.ไลอ้อน","13.6813747","100.526393"
"10173776","ป้ายรถประจำทาง","13.7576542","100.5066117"
"10173775","ป้ายรถประจำทาง ครัวริมบึง","13.7819168","100.6493009"
"10173774","ป้ายรถประจำทาง ศูนย์มนุษย์วิทยา","13.7842464","100.458255"
"10173773","ป้ายรถประจำทาง","13.7755375741","100.523135968"
"10173772","ป้ายรถประจำทาง กองทัพภาคที่ 1","13.7666217","100.5108884"
"10173771","ป้ายรถประจำทาง วัดเบญจมบพิตร","13.7667287","100.5145611"
"10173770","ป้ายรถประจำทาง โรงเรียนพันจ่าทหารเรือ","13.7412576","100.4858637"
"10173769","ป้ายรถประจำทาง มหาวิทยาลัยธรรมศาสตร์รังสิต","14.0751093","100.6180989"
"10173768","ป้ายรถประจำทาง รพ. เจ้าพระยา","13.7838995","100.4717776"
"10173767","ป้ายรถประจำทาง แยกห้วยขวาง","13.7774263","100.5734138"
"10173766","ป้ายรถประจำทาง ทางรถไฟวัดนางนอง","13.7032871","100.4671916"
"10173765","ป้ายรถประจำทาง โรงงานยาสูบ","13.7219536","100.5552048"
"10173764","ป้ายรถประจำทาง เทคโนโลยีนานาชาติสิรินธร ม.ธรรมศาสตร์","13.9826233","100.5504415"
"10173763","ป้ายรถประจำทาง","13.7760273244","100.5220040758"
"10173762","ป้ายรถประจำทาง ตลาดไท","14.0817654","100.6188915"
"10173761","ป้ายรถประจำทาง ซอยเพ้ง","13.5963348","100.519122"
"10173760","ป้ายรถประจำทาง กรมอู่ทหารเรือ","13.744841","100.4860482"
"10173759","ป้ายรถประจำทาง โรงแรมดิเอมเมอรัล","13.7752686","100.5732952"
"10173758","ป้ายรถประจำทาง ซอยเอกชัย 3","13.6987463","100.4601181"
"10173757","ป้ายรถประจำทาง โรงเรียนคลองนาเกลือน้อย","13.598854","100.518155"
"10173756","ป้ายรถประจำทาง โรงเรียนประชาราษฏร์","13.7724321","100.5731457"
"10173755","ป้ายรถประจำทาง สะพานสุดเขตกรุงเทพมหานคร","13.602936","100.515531"
"10173754","ป้ายรถประจำทาง","13.6119549","100.5103732"
"10173753","ป้ายรถประจำทาง","13.8817978","100.5862612"
"10173752","ป้ายรถประจำทาง วัดเครือวัลย์วรวิหาร","13.7463296","100.485114"
"10173751","ป้ายรถประจำทาง ซอยประชาอุทิศ 115","13.6173586","100.5116083"
"10173750","ป้ายรถประจำทาง หมู่บ้านปูนซีเมนต์","13.8299449","100.545164"
"10173749","ป้ายรถประจำทาง บ.ไทยประกันชีวิต","13.7673429","100.5709006"
"10173748","ป้ายรถประจำทาง ซอยธนาอาเขต","13.7222974","100.5846877"
"10173747","ป้ายรถประจำทาง","13.6737154","100.5361341"
"10173746","ป้ายรถประจำทาง","13.6741832","100.5433878"
"10173745","ป้ายรถประจำทาง สถาบันการสอนเดอะเบรน","13.7806048401","100.4748677804"
"10173744","ป้ายรถประจำทาง ไอซีทาวเวอร์","13.7563549","100.5623122"
"10173743","ป้ายรถประจำทาง โรงเรียนสทราวดี","13.7542922","100.4836256"
"10173742","ป้ายรถประจำทาง วัดทุ่งครุ","13.6189917","100.5115194"
"10173741","ป้ายรถประจำทาง ซอยมหาวงษ์ใต้","13.7571852","100.5580595"
"10173740","ป้ายรถประจำทาง","13.7546172855","100.5143360537"
"10173739","ป้ายรถประจำทาง","13.6783664","100.5469739"
"10173738","ป้ายรถประจำทาง บางกอกกอล์ฟคลับ","13.9774499","100.5504529"
"10173737","ป้ายรถประจำทาง หมู่บ้านนริศา","13.6200474","100.511399"
"10173736","ป้ายรถประจำทาง","13.8867731","100.5775145"
"10173735","ป้ายรถประจำทาง แยกตัดทางหลวง 306","13.968304","100.550461"
"10173734","ป้ายรถประจำทาง สะพานวุฒากาศ 1","13.7113395","100.4707247"
"10173733","ป้ายรถประจำทาง ซอยประชาอุทิศ 79/1","13.623298","100.5096193"
"10173732","ป้ายรถประจำทาง ร้านอาหารแม่อิ่ม","13.6307805","100.5040364"
"10173731","ป้ายรถประจำทาง","13.7280156","100.5406794258"
"10173730","ป้ายรถประจำทาง","13.7749402469","100.4800957844"
"10173729","ป้ายรถประจำทาง ตรงข้าม TOT สำนักงานใหญ่","13.8884553","100.5743667"
"10173728","ป้ายรถประจำทาง ประชาอุทิศ ซอย 68","13.6323301","100.503541"
"10173727","ป้ายรถประจำทาง กรมทหารเรือ(อรุณอัมรินทร์)","13.7485069","100.4841795"
"10173726","ป้ายรถประจำทาง โรงพยาบาลรามคำแหง","13.7619066","100.6397621"
"10173725","ป้ายรถประจำทาง โรงพยาบาลมิชชั่น","13.756973","100.5188773"
"10173724","ป้ายรถประจำทาง หมอชิต","13.8018687245","100.5536027651"
"10173723","ป้ายรถประจำทาง ซอยประชาอุทิศ 10","13.6670863","100.5043419"
"10173722","ป้ายรถประจำทาง","13.7575761669","100.4963060023"
"10173721","ป้ายรถประจำทาง ตลาดใหญ่บ้านขมิ้น","13.7516407","100.4837086"
"10173720","ป้ายรถประจำทาง โบสถ์แม่พระฟาติมา","13.760293","100.5556549"
"10173719","ป้ายรถประจำทาง ศูนย์คุมอง","13.6329545","100.5032032"
"10173718","ป้ายรถประจำทาง ตรงข้าม DSI","13.8898329","100.5703356"
"10173717","ป้ายรถประจำทาง","13.8828761","100.5844876"
"10173716","ป้ายรถประจำทาง สถานีรถไฟฟ้า BTS สนามเป้า","13.7727332818","100.5421984706"
"10173715","ป้ายรถประจำทาง จัสโก้ ประชาอุทิศ","13.6396616361","100.5006152184"
"10173714","ป้ายรถประจำทาง โรงแรมปทุมธานีเพลส","13.9751439","100.5505298"
"10173713","ป้ายรถประจำทาง","13.7211749239","100.5040931907"
"10173712","ป้ายรถประจำทาง","13.642211","100.4997945"
"10173711","ป้ายรถประจำทาง วัดระฆังโฆสิตาราม","13.7533427","100.4836839"
"10173710","ป้ายรถประจำทาง ตรงข้ามบริษัทกรุงเทพคลังเอกสาร จำกัด","13.6845867","100.4955021"
"10173709","ป้ายรถประจำทาง","13.8635502","100.5706531"
"10173708","ป้ายรถประจำทาง","13.7701311","100.6525091"
"10173707","ป้ายรถประจำทาง","13.6442157","100.4991059"
"10173706","ป้ายรถประจำทาง","13.8673993","100.5726688"
"10173705","ป้ายรถประจำทาง ตรงข้ามซอยประชาอุทิศ 48","13.6465138","100.4973054"
"10173704","ป้ายรถประจำทาง ตลาดบางกะปิ","13.7659856934","100.6464345196"
"10173703","ป้ายรถประจำทาง อิสานตะวันแดง","13.7392243","100.6052014"
"10173702","ป้ายรถประจำทาง วัดอัมรินทร์","13.7598749","100.4825389"
"10173701","ป้ายรถประจำทาง","13.8722251251","100.5752403405"
"10173700","ป้ายรถประจำทาง อู่คลองเตย","13.7159589","100.565965"
"10173699","ป้ายรถประจำทาง บ้านใหม่","13.9579496","100.5504979"
"10173698","ป้ายรถประจำทาง","13.7420296","100.5400052"
"10173697","ป้ายรถประจำทาง หมู่บ้านจรรยานิเวศร์","13.9008968","100.5389912"
"10173696","ป้ายรถประจำทาง","13.6810061","100.5478309"
"10173695","ป้ายรถประจำทาง ตรงข้ามหมู่บ้านประดับสุข","13.9417731","100.5425791"
"10173694","ป้ายรถประจำทาง ศูนย์มนุษย์วิทยา","13.783012","100.4538502"
"10173693","ป้ายรถประจำทาง","13.7665363","100.6491563"
"10173692","ป้ายรถประจำทาง โรงแรมเทียร่า","13.7633997","100.5447946"
"10173691","ป้ายรถประจำทาง ตรงข้ามศูนย์ราชการกรุงเทพมหานคร","13.89112","100.5666656"
"10173690","ป้ายรถประจำทาง ตรงข้ามบริษัทนครชัยแอร์หมอชิต 2","13.8270662","100.550442"
"10173689","ป้ายรถประจำทาง ตรงข้ามเซ็นทรัลสีลม","13.7235767","100.5200849"
"10173688","ป้ายรถประจำทาง ท่ารถสาย 23","13.7671323","100.5064641"
"10173687","ป้ายรถประจำทาง หมู่บ้านมิตรประชา","13.9370825","100.5388744"
"10173686","ป้ายรถประจำทาง สถานีตำรวจตลิ่งชัน","13.780686","100.4463597"
"10173685","ป้ายรถประจำทาง สน.บางกอกน้อย","13.6520665901","100.2751174599"
"10173684","ป้ายรถประจำทาง ตรงข้ามโรงเรียนพรประสาทวิทยา","13.7197235","100.4733942"
"10173683","ป้ายรถประจำทาง ติวานนท์-ปากเกร็ด 37","13.9481977","100.5458673"
"10173682","ป้ายรถประจำทาง แยกอิสรภาพ 44","13.7523206","100.4782611"
"10173681","ป้ายรถประจำทาง สถานีรถไฟมักกะสัน","13.7605268","100.5423967"
"10173680","ป้ายรถประจำทาง วัดศรีบุญเรือง","13.7678170634","100.6507927712"
"10173679","ป้ายรถประจำทาง","13.7602298","100.6253296"
"10173678","ป้ายรถประจำทาง","13.6826166026","100.548200973"
"10173677","ป้ายรถประจำทาง โรงเรียนสทราวดี","13.7542922","100.4834611"
"10173676","ป้ายรถประจำทาง การบินไทย","13.7565174","100.5111446"
"10173675","ป้ายรถประจำทาง สามแยกเจดีย์","13.594476","100.579594"
"10173674","ป้ายรถประจำทาง ห้างเซ็นทรัลเวิลด์","13.747039","100.5404142"
"10173673","ป้ายรถประจำทาง ห้างเดอะมอลล์รามคำแหง","13.752003","100.6102753"
"10173672","ป้ายรถประจำทาง ตรงข้ามธนาคารกรุงเทพ สาขาเสนา","13.8378831","100.5744672"
"10173671","ป้ายรถประจำทาง","13.7397624555","100.6037420249"
"10173670","ป้ายรถประจำทาง ตรงข้ามโรงเรียนพิบูลประชาสรรค์","13.7624853","100.5505453"
"10173669","ป้ายรถประจำทาง สนามกีฬาศุภชลาศัย","13.746568","100.5291835"
"10173668","ป้ายรถประจำทาง","13.7753973","100.6532397"
"10173667","ป้ายรถประจำทาง","13.7806926","100.6503208"
"10173666","ป้ายรถประจำทาง","13.7414828","100.5130778"
"10173665","ป้ายรถประจำทาง ซอยยาดอง","13.7338315","100.587391"
"10173664","ป้ายรถประจำทาง หมู่บ้านเมืองทองธานี","13.9304818","100.5310168"
"10173663","ป้ายรถประจำทาง ห้างคาร์ฟูร์แจ้งวัฒนะ","13.9066071","100.5150187"
"10173662","ป้ายรถประจำทาง ซอยวัดยาง","13.7550599256","100.4731077331"
"10173661","ป้ายรถประจำทาง สุขาประชาสวรรค์ 3 ซอย 26","13.9250567","100.5245299"
"10173660","ป้ายรถประจำทาง วัดระฆังโฆสิตาราม","13.7533469","100.4835076"
"10173659","ป้ายรถประจำทาง ตลาดใหม่บ้านขมิ้น","13.7516399","100.483514"
"10173658","ป้ายรถประจำทาง","13.7777079","100.652209"
"10173657","ป้ายรถประจำทาง ซอยหมู่บ้านลานทอง","13.9185277","100.5167005"
"10173656","ป้ายรถประจำทาง","13.9108461498","100.4988271432"
"10173655","ป้ายรถประจำทาง ห้างเซ็นทรัลลาดพร้าว","13.8147622","100.561126"
"10173654","ป้ายรถประจำทาง ศรีไทยซุปเปอร์แวร์","13.6781317","100.4985301"
"10173653","ป้ายรถประจำทาง กรมทหารเรือ(อรุณอัมรินทร์)","13.7484082","100.4839972"
"10173652","ป้ายรถประจำทาง ตรงข้ามวังบูรพาภิรมย์","13.7462005101","100.4994712349"
"10173651","ป้ายรถประจำทาง วัดเครือวัลย์วรวิหาร","13.746212","100.4849932"
"10173650","ป้ายรถประจำทาง ตรงข้ามวัดดอนหวาย","13.7722229","100.2853879"
"10173649","ป้ายรถประจำทาง ม. สยาม","13.7133531928","100.3956105626"
"10173648","ป้ายรถประจำทาง ซอยประชาอุทิศ 48","13.646327","100.4974378"
"10173647","ป้ายรถประจำทาง ติวานนท์-ปากเกร็ด 34","13.9279625","100.527905"
"10173646","ป้ายรถประจำทาง กรมอู่ทหารเรือ","13.7447174","100.4858923"
"10173645","ป้ายรถประจำทาง","13.6169982","100.5115684"
"10173644","ป้ายรถประจำทาง คลองหลอด","13.7438842","100.496266"
"10173643","ป้ายรถประจำทาง","13.6151653","100.5107329"
"10173642","ป้ายรถประจำทาง","13.7560191","100.6143198"
"10173641","ป้ายรถประจำทาง","13.9393189","100.6245132"
"10173640","ป้ายรถประจำทาง โรงเรียนโสมาภา","13.7896331","100.6514612"
"10173639","ป้ายรถประจำทาง","13.6386595","100.5273354"
"10173638","ป้ายรถประจำทาง","13.6140939","100.5099903"
"10173637","ป้ายรถประจำทาง","13.6436846","100.5253097"
"10173636","ป้ายรถประจำทาง","13.6122537","100.5099111"
"10173635","ป้ายรถประจำทาง สุขสวัสดิ์ 39/1","13.6490311","100.5230177"
"10173634","ป้ายรถประจำทาง ตลาดท่าพระรุ่งเรือง","13.7287948","100.478828"
"10173633","ป้ายรถประจำทาง ครัวริมบึง","13.7820038","100.6494048"
"10173632","ป้ายรถประจำทาง มหาวิทยาลัยรามคำแหง","13.7592861","100.6186989"
"10173631","ป้ายรถประจำทาง หน้าโรงเรียนณรงค์สอนขับรถ","13.7395652563","100.4843460693"
"10173630","ป้ายรถประจำทาง ซอยอิสรภาพ 15","13.7329508","100.4918969"
"10173629","ป้ายรถประจำทาง โรงเรียนสวนกุหลาบนนทบุรี","13.9114795","100.5081471"
"10173628","ป้ายรถประจำทาง แยกบ้านม้า","13.7678068","100.6582956"
"10173627","ป้ายรถประจำทาง ทะเลสาบ ที่ 1","13.7829885","100.6485267"
"10173626","ป้ายรถประจำทาง","13.9431157301","100.623826254"
"10173625","ป้ายรถประจำทาง คลองเตย","13.7303907593","100.3958603408"
"10173624","ป้ายรถประจำทาง","13.7289092419","100.5043034453"
"10173623","ป้ายรถประจำทาง วัดสีหไกรสร","13.7556518","100.4794531"
"10173622","ป้ายรถประจำทาง หมู่บ้านวานา","13.7882963","100.3517756"
"10173621","ป้ายรถประจำทาง พุทธมณฑลสาย 2-บรมราชชนนี","13.784086","100.3961979"
"10173620","ป้ายรถประจำทาง","13.7787341808","100.4514043221"
"10173619","ป้ายรถประจำทาง กรมบังคับคดี","13.7771936","100.4651475"
"10173618","ป้ายรถประจำทาง ซอยติวานนท์-ปากเกร็ด 22","13.9161837","100.5138402"
"10173617","ป้ายรถประจำทาง หมู่บ้านประชาสามัคคี","13.6396021253","100.6062651168"
"10173616","ป้ายรถประจำทาง","13.6550553","100.6717446"
"10173615","ป้ายรถประจำทาง","13.8429136","100.4936821"
"10173614","ป้ายรถประจำทาง หมู่บ้านพลอยแก้ว","13.7883054","100.3568562"
"10173613","ป้ายรถประจำทาง วัดเจ้าอาม","13.7756446","100.4658501"
"10173612","ป้ายรถประจำทาง","13.8399951","100.4964941"
"10173611","ป้ายรถประจำทาง","13.7781634887","100.4434258391"
"10173610","ป้ายรถประจำทาง ท่ารถสาย 159 ชักพระ","13.7794617","100.4585616"
"10173609","ป้ายรถประจำทาง ซอยแจ้งวัฒนะ-ปากเกร็ด 11/1","13.906898","100.5123501"
"10173608","ป้ายรถประจำทาง กรมชลประทาน","13.8925702","100.5092421"
"10173607","ป้ายรถประจำทาง","13.876135","100.5153641"
"10173606","ป้ายรถประจำทาง","13.8675034","100.5186944"
"10173605","ป้ายรถประจำทาง ซอยสวนสยาม 16","13.8088024782","100.6901434472"
"10173604","ป้ายรถประจำทาง ซอยอมรพันธ์นคร 5","13.798768","100.689609"
"10173603","ป้ายรถประจำทาง ห้างคาร์ฟูร์ลาดพร้าว","13.8094822","100.5676888"
"10173602","ป้ายรถประจำทาง ห้างพาต้าปิ่นเกล้า","13.7709512","100.4836116"
"10173601","ป้ายรถประจำทาง","13.8569897","100.520415"
"10173600","ป้ายรถประจำทาง","13.7599321","100.6218129"
"10173599","ป้ายรถประจำทาง บ้านระยอง","13.5826585","100.5253085"
"10173598","ป้ายรถประจำทาง","13.7938286","100.6874834"
"10173597","ป้ายรถประจำทาง องค์การสวนยาง","13.7696411","100.4690186"
"10173596","ป้ายรถประจำทาง แยกวัดคู่สร้าง","13.5790299089","100.5265905747"
"10173595","ป้ายรถประจำทาง","13.7397974585","100.5163489706"
"10173594","ป้ายรถประจำทาง","13.8727085","100.5166753"
"10173593","ป้ายรถประจำทาง ซอยราษฎร์บูรณะแยก 1","13.6820825806","100.5023996749"
"10173592","ป้ายรถประจำทาง ตรงข้ามวัดสามพระยา","13.7641129","100.4993456"
"10173591","ป้ายรถประจำทาง โรงเรียนติวานนท์ศึกษา","13.8533071","100.5178851"
"10173590","ป้ายรถประจำทาง","13.8036422","100.5213997"
"10173589","ป้ายรถประจำทาง วัดศรีสุดาราม","13.7662456","100.4717769"
"10173588","ป้ายรถประจำทาง บริษัทไทยน้ำทิพย์รามคำแหง","13.7612248217","100.6335282269"
"10173587","ป้ายรถประจำทาง ตรงข้ามเรือนทองนิเวศน์","13.7928024","100.6847838"
"10173586","ป้ายรถประจำทาง แยกลาดพร้าว","13.8122294","100.5628319"
"10173585","ป้ายรถประจำทาง ตรงข้ามวัดวิเศษการ","13.7558907","100.4821047"
"10173584","ป้ายรถประจำทาง รามคำแหง ซอย 189","13.8012635","100.7193272"
"10173583","ป้ายรถประจำทาง MRT พหลโยธิน","13.8150882189","100.5605120822"
"10173582","ป้ายรถประจำทาง การไฟฟ้าย่อยราษฎร์บูรณะ","13.6811672771","100.5068849435"
"10173581","ป้ายรถประจำทาง กองสลาก","13.7579129","100.4966761"
"10173580","ป้ายรถประจำทาง สถานีรถไฟดอนเมือง","13.9203119","100.6019199"
"10173579","ป้ายรถประจำทาง จตุจักร","13.8039198569","100.5542583019"
"10173578","ป้ายรถประจำทาง","13.8279728","100.6580925"
"10173577","ป้ายรถประจำทาง สำนักงานไปรษณีย์บางขุนนนท์","13.7680342","100.4702054"
"10173576","ป้ายรถประจำทาง จตุจักร","13.8025706865","100.5534662073"
"10173575","ป้ายรถประจำทาง ซอยสายหยุด","13.8865514","100.603335"
"10173574","ป้ายรถประจำทาง ตลาดนัดจตุจักร","13.7985596","100.5485129"
"10173573","ป้ายรถประจำทาง","13.8296714485","100.5017626689"
"10173572","ป้ายรถประจำทาง","13.9324762","100.6253987"
"10173571","ป้ายรถประจำทาง เจเจมอลล์","13.8016685","100.5483951"
"10173570","ป้ายรถประจำทาง แฟรกส์ บาร์","13.8287022","100.5018991"
"10173569","ป้ายรถประจำทาง","13.8928334512","100.6070398217"
"10173568","ป้ายรถประจำทาง","13.790907645","100.6805452191"
"10173567","ป้ายรถประจำทาง ตรงข้ามพหลโยธิน 54/1","13.930435","100.6257599"
"10173566","ป้ายรถประจำทาง นวธานี","13.7886332","100.6777546"
"10173565","ป้ายรถประจำทาง รพ.ศิริราช","13.7572924","100.4832612"
"10173564","ป้ายรถประจำทาง จักรวรรดิ","13.7456729086","100.5058178128"
"10173563","ป้ายรถประจำทาง","13.7844239547","100.674112295"
"10173562","ป้ายรถประจำทาง ตรงข้ามโรงเรียนอนุบาลสวนสยาม","13.8023948","100.69101"
"10173561","ป้ายรถประจำทาง เจเจมอล จตุจักรตลาดนัดติดแอร์","13.8028762","100.5484063"
"10173560","ป้ายรถประจำทาง กรมทางหลวง","13.7783264921","100.5123631577"
"10173559","ป้ายรถประจำทาง","13.7828505124","100.6725207178"
"10173558","ป้ายรถประจำทาง ตลาดสี่มุมเมือง","13.9625099","100.6199356"
"10173557","ป้ายรถประจำทาง","13.7816838","100.67072"
"10173556","ป้ายรถประจำทาง โรงเรียนนายเรืออากาศ","13.9221845835","100.6240569786"
"10173555","ป้ายรถประจำทาง การบินไทยหลานหลวง","13.7562864","100.5071802"
"10173554","ป้ายรถประจำทาง","13.7808717","100.6693795"
"10173553","ป้ายรถประจำทาง รามคำแหง ซอย 34","13.7615647","100.6365218"
"10173552","ป้ายรถประจำทาง ผ่านฟ้า","13.7560051377","100.5039523661"
"10173551","ป้ายรถประจำทาง ซอยตาเซียน","13.7769153","100.6615781"
"10173550","ป้ายรถประจำทาง สำนักงานสถิติแห่งชาติ","13.7564277","100.5143059"
"10173549","ป้ายรถประจำทาง","13.6596785495","100.5327881038"
"10173548","ป้ายรถประจำทาง ซอยรอดอนันต์ 4","13.7753801","100.6587162"
"10173547","ป้ายรถประจำทาง โรงเรียนเสริมปัญญา","13.6983492947","100.4984669509"
"10173546","ป้ายรถประจำทาง แยกศูนย์วัฒนธรรม","13.76794","100.57418"
"10173545","ป้ายรถประจำทาง ตรงข้ามวิภาวดีรังสิต 35","13.9398291","100.6129858"
"10173544","ป้ายรถประจำทาง หน้าปั๊มน้ำมัน","13.8080219","100.5480987"
"10173543","ป้ายรถประจำทาง สะพานขาว","13.7567842","100.5172087"
"10173542","ป้ายรถประจำทาง โรงพยาบาลภูมิพลอดุลยเดช","13.9099907533","100.6171704516"
"10173541","ป้ายรถประจำทาง ทหารปืนใหญ่ที่ 1","13.7932114","100.5313601"
"10173540","ป้ายรถประจำทาง ป. กุ้งเผา","13.7649895","100.5690939"
"10173539","ป้ายรถประจำทาง สโมสรทหารอากาศ","13.9129604256","100.6188787963"
"10173538","ป้ายรถประจำทาง หมู่บ้านศุภลักษณ์","13.9459184","100.6163825"
"10173537","ป้ายรถประจำทาง โรงเรียนฤทธิยะ","13.9160686","100.620436"
"10173536","ป้ายรถประจำทาง มหาวิทยาลัยเทคโนโลยีพระจอมเกล้าพระนครเหนือ","13.818535","100.5141073"
"10173535","ป้ายรถประจำทาง แยกประดิพัทธ์","13.7945789","100.5389577"
"10173534","ป้ายรถประจำทาง สโมสรทหารอากาศ","13.9132522","100.6188007"
"10173533","ป้ายรถประจำทาง","13.7471766","100.5091712"
"10173532","ป้ายรถประจำทาง","13.79588","100.5250016"
"10173531","ป้ายรถประจำทาง ตึกเมืองไทยภัทร","13.7872913","100.574259"
"10173530","ป้ายรถประจำทาง แยกเกียกกาย","13.7977402","100.521418"
"10173529","ป้ายรถประจำทาง","13.8015516","100.5213444"
"10173528","ป้ายรถประจำทาง พระราม 9 พลาซ่า","13.7482038","100.60429"
"10173527","ป้ายรถประจำทาง ตลาดยิ่งเจริญ","13.896987","100.609158"
"10173526","ป้ายรถประจำทาง บิ๊กซีสุขาภิบาล 3","13.8068216","100.7274255"
"10173525","ป้ายรถประจำทาง ตรงข้ามหมู่บ้านปูนซีเมนต์","13.8232169","100.5487307"
"10173524","ป้ายรถประจำทาง ซอยประชาราษฎร์ สาย 1 ซอย 16","13.8043174","100.521494"
"10173523","ป้ายรถประจำทาง ศูนย์โตโยต้าพระราม 9","13.7503004","100.5978685"
"10173522","ป้ายรถประจำทาง แยกร่มเกล้า","13.8119329","100.736268"
"10173521","ป้ายรถประจำทาง สถานฑูตจีน","13.7618228","100.5667114"
"10173520","ป้ายรถประจำทาง การบินไทยหลานหลวง","13.7564023","100.5070797"
"10173519","ป้ายรถประจำทาง ประชาราษฎร์ สาย 1 ซอย 20","13.8079071","100.5217350798"
"10173518","ป้ายรถประจำทาง","13.8129032","100.5498113"
"10173517","ป้ายรถประจำทาง","13.7368288","100.624132"
"10173516","ป้ายรถประจำทาง","13.7369555","100.6274281"
"10173515","ป้ายรถประจำทาง","13.8319293","100.5008644"
"10173514","ป้ายรถประจำทาง","13.6679961453","100.630971428"
"10173513","ป้ายรถประจำทาง","13.8438212","100.5029441"
"10173512","ป้ายรถประจำทาง","13.8934948015","100.6071041948"
"10173511","ป้ายรถประจำทาง โรงพยาบาลตำรวจ","13.7452635","100.5366147"
"10173510","ป้ายรถประจำทาง ซอยประชาราษฎร์ 3","13.8437982","100.5051499"
"10173509","ป้ายรถประจำทาง อาร์เอสแมนชั่น","13.7509577","100.5961412"
"10173508","ป้ายรถประจำทาง ธนาคารกรุงเทพสะพานใหม่","13.8919781719","100.6061826939"
"10173507","ป้ายรถประจำทาง บ.สุขภัณฑ์เซ็นเตอร์","13.8108771219","100.7165582362"
"10173506","ป้ายรถประจำทาง วิลล่าคาเฟ่","13.7527596","100.5904515"
"10173505","ป้ายรถประจำทาง ที่ทำการรถไฟฟ้ามหานคร (รฟม.)","13.7552633","100.5790111"
"10173504","ป้ายรถประจำทาง","13.7700916231","100.5590374232"
"10173503","ป้ายรถประจำทาง โรงแรมแม่น้ำ","13.707711321","100.5088225558"
"10173502","ป้ายรถประจำทาง แยก อ.ส.ม.ท.","13.7559744879","100.5678928936"
"10173501","ป้ายรถประจำทาง สหพัฒนพิบูลย์","13.745736","100.5796865"
"10173500","ป้ายรถประจำทาง สนามกีฬา1","13.7470879","100.5260234"
"10173499","ป้ายรถประจำทาง","13.6626359","100.6573887"
"10173498","ป้ายรถประจำทาง หมู่บ้านฝนทอง","13.8834169","100.6011808"
"10173497","ป้ายรถประจำทาง พหลโยธิน 84","13.9658697","100.6200132"
"10173496","ป้ายรถประจำทาง บางชันคลินิกแล็บ","13.803706","100.709875"
"10173495","ป้ายรถประจำทาง","13.8690994","100.5183785"
"10173494","ป้ายรถประจำทาง มหาวิทยาลัยธรรมศาสตร์","13.7564936","100.4924513"
"10173493","ป้ายรถประจำทาง เมรี อาบอบนวด","13.7429654","100.5921617"
"10173492","ป้ายรถประจำทาง","13.7471707827","100.5006365901"
"10173491","ป้ายรถประจำทาง มไหสวรรค์","13.7051681375","100.4845235983"
"10173490","ป้ายรถประจำทาง","13.7207491","100.689482"
"10173489","ป้ายรถประจำทาง","13.7209325","100.6933079"
"10173488","ป้ายรถประจำทาง บ.ไทยประกันชีวิต","13.7676054","100.5715351"
"10173487","ป้ายรถประจำทาง ธนาคารกรุงไทย","13.803812","100.71034"
"10173486","ป้ายรถประจำทาง","13.8568989","100.5205769"
"10173485","ป้ายรถประจำทาง บ.สุขภัณฑ์เซ็นเตอร์","14.0797511754","100.589460362"
"10173484","ป้ายรถประจำทาง หน้าร้านอาหารเยาวราช","13.8874502","100.5113359"
"10173483","ป้ายรถประจำทาง","13.7875007","100.6067577"
"10173482","ป้ายรถประจำทาง","13.7676494147","100.5018900572"
"10173481","ป้ายรถประจำทาง","13.7162383","100.6542807"
"10173480","ป้ายรถประจำทาง","13.8623318","100.5208438"
"10173479","ป้ายรถประจำทาง","13.6990879","100.5455942"
"10173478","ป้ายรถประจำทาง ธนาคารอาคารสงเคราะห์","13.8661815","100.5910105"
"10173477","ป้ายรถประจำทาง วัดแก้วแจ่มฟ้า","13.7309489722","100.5199183301"
"10173476","ป้ายรถประจำทาง หน้าอู่บางเขน","13.8706104156","100.5936501258"
"10173475","ป้ายรถประจำทาง กรมทหารสื่อสารกองทัพบก","13.8800665042","100.599193667"
"10173474","ป้ายรถประจำทาง","13.693104","100.5471338"
"10173473","ป้ายรถประจำทาง มทร.ธัญบุรี","14.0344428","100.7318437"
"10173472","ป้ายรถประจำทาง สวนจตุจักร2","13.9955641482","100.6022215932"
"10173471","ป้ายรถประจำทาง โรงพยาบาลธัญบุรี","14.020578","100.7320747"
"10173470","ป้ายรถประจำทาง","13.8659003","100.5195765"
"10173469","ป้ายรถประจำทาง หมู่บ้านนราสิริ","13.728503","100.6414256"
"10173468","ป้ายรถประจำทาง กรมที่ดินมีนบุรี","13.6285695135","100.625791048"
"10173467","ป้ายรถประจำทาง หมู่บ้านพนาสน","13.8075275409","100.7149689766"
"10173466","ป้ายรถประจำทาง มหาวิทยาลัยอีสเทิร์นเอเชีย","14.0153411","100.7226509"
"10173465","ป้ายรถประจำทาง","13.8474226","100.5141722"
"10173464","ป้ายรถประจำทาง โรงพยาบาลปทุมเวช","13.9877771","100.6103203"
"10173463","ป้ายรถประจำทาง สะพานผ่านฟ้า","13.7565607587","100.5035713029"
"10173462","ป้ายรถประจำทาง","13.8764208","100.5156367"
"10173461","ป้ายรถประจำทาง","13.7204670784","100.5158398675"
"10173460","ป้ายรถประจำทาง","13.8801479","100.5141678"
"10173459","ป้ายรถประจำทาง ตลาดน้อย","13.7330451","100.514481"
"10173458","ป้ายรถประจำทาง","13.7201948","100.5251907"
"10173457","ป้ายรถประจำทาง","13.8921463","100.5096788"
"10173456","ป้ายรถประจำทาง ป้ายก่อยแยกสาธุฯ","13.680304","100.5280762"
"10173455","ป้ายรถประจำทาง","13.8940887","100.5089982"
"10173454","ป้ายรถประจำทาง ซอยฟาร์มวัฒนา","13.7127432","100.5864499"
"10173453","ป้ายรถประจำทาง ถนนฉีมพลี","13.7810222","100.4312034"
"10173452","ป้ายรถประจำทาง วัดโคกคราม","13.5933103","100.3438491"
"10173451","ป้ายรถประจำทาง","13.7969401","100.5746556"
"10173450","ป้ายรถประจำทาง วัดมูลจินดาราม","14.0094102","100.7088765"
"10173449","ป้ายรถประจำทาง ซอยราษฎร์บูรณะ 30","13.6783219","100.5124339"
"10173448","ป้ายรถประจำทาง","13.6640169","100.6515559"
"10173447","ป้ายรถประจำทาง โลตัส รังสิต-นครนายก","13.9988525","100.6807484"
"10173446","ป้ายรถประจำทาง","13.8984678","100.5073778"
"10173445","ป้ายรถประจำทาง","13.8432199","100.5775397"
"10173444","ป้ายรถประจำทาง","13.9008518","100.5064226"
"10173443","ป้ายรถประจำทาง วัดเขียนเขต","13.9980519","100.6774518"
"10173442","ป้ายรถประจำทาง ซอยราษฎร์บูรณะ 36","13.6767517","100.5150399"
"10173441","ป้ายรถประจำทาง ท่ารถสาย 59 สนามหลวง","13.7546199","100.4919898"
"10173440","ป้ายรถประจำทาง","13.7286845","100.5452442"
"10173439","ป้ายรถประจำทาง หมู่บ้านแพรมาพร","14.0034972","100.6950749"
"10173438","ป้ายรถประจำทาง","13.7554133785","100.5095809399"
"10173437","ป้ายรถประจำทาง","13.9019828","100.5060079"
"10173436","ป้ายรถประจำทาง","13.9082308","100.5028543"
"10173435","ป้ายรถประจำทาง แก้วนิมิตร","14.0326139","100.6162319"
"10173434","ป้ายรถประจำทาง","13.9033383","100.5054278"
"10173433","ป้ายรถประจำทาง คลอง 4","13.9998429","100.6852276"
"10173432","ป้ายรถประจำทาง ตรงข้ามที่ทำการไปรษณีย์ห้าแยกปากเกร็ด","13.906109","100.5043601"
"10173431","ป้ายรถประจำทาง","13.7342363","100.5444761"
"10173430","ป้ายรถประจำทาง โรงพยาบาลเวชการุณย์รัศมิ์","13.855918","100.8586987"
"10173429","ป้ายรถประจำทาง ธนาคารทหารไทยศรีนครินทร์","13.70519","100.6453867"
"10173428","ป้ายรถประจำทาง เลียบวารี 6","13.8560501","100.8566753"
"10173427","ป้ายรถประจำทาง โรงเรียนสวนกุหลาบนนทบุรี","13.9113076","100.5083321"
"10173426","ป้ายรถประจำทาง SUZUKI","13.9970933","100.6729445"
"10173425","ป้ายรถประจำทาง โรงพยาบาลธนบุรี 2","13.7841616","100.4014108"
"10173424","ป้ายรถประจำทาง ตรงข้าม อบต.บึงยี่โถ","13.9957093","100.6665489"
"10173423","ป้ายรถประจำทาง ซอยกรุงเทพ-นนท์ 14","13.8406592","100.5138255"
"10173422","ป้ายรถประจำทาง ถนนตก","13.6962887","100.4981357"
"10173421","ป้ายรถประจำทาง รังสิต-นครนายก 45","13.9920713","100.6497611"
"10173420","ป้ายรถประจำทาง","13.8545705","100.5492176"
"10173419","ป้ายรถประจำทาง","13.9138287","100.51132"
"10173418","ป้ายรถประจำทาง","13.7981012","100.5876989"
"10173417","โรงเรียน ขส.ทบ","13.9320011","100.5331179"
"10173416","ป้ายรถประจำทาง ซอยมิตรไมตรี","13.85586","100.853717"
"10173415","ป้ายรถประจำทาง ชุมชนแจงร้อน","13.6749359","100.5172211"
"10173414","ป้ายรถประจำทาง","13.7642802","100.5122537"
"10173413","ป้ายรถประจำทาง รัชดาซอย 4","13.7091682","100.4799317"
"10173412","ป้ายรถประจำทาง รามคำแหง 61","13.7601904","100.6228694"
"10173411","ป้ายรถประจำทาง รังสิต-นครนายก 33","13.9908726","100.6450743"
"10173410","ป้ายรถประจำทาง หมู่บ้านมิตรประชา","13.9368984","100.5390712"
"10173409","ป้ายรถประจำทาง แยกราษฎร์พัฒนา","13.5948404","100.3314767"
"10173408","ป้ายรถประจำทาง หมู่บ้านประดับสุข","13.9423294","100.5431342"
"10173407","ป้ายรถประจำทาง ปั้มน้ำมันคิวเอด","13.6796204755","100.5105298154"
"10173406","ป้ายรถประจำทาง","13.7673915","100.53296"
"10173405","ป้ายรถประจำทาง ตรงข้ามโรงเรียนคริสเตียนวิทยา","13.8440229","100.5016544"
"10173404","ป้ายรถประจำทาง ตรงข้ามโรงเรียนวัดลานนาบุญ","13.843774","100.5094046"
"10173403","ป้ายรถประจำทาง ราษฎร์บูรณะ 48","13.6701494","100.5189572"
"10173402","ป้ายรถประจำทาง ท่าแจงร้อน","13.6734368","100.5180628"
"10173401","ป้ายรถประจำทาง ซอยพระแม่มหาการุณย์","13.9487301","100.54653"
"10173400","ป้ายรถประจำทาง วัดวิเศษการ","13.756001","100.4822199"
"10173399","ป้ายรถประจำทาง ตรงข้ามเทพลีลา ซอย 2","13.7582884364","100.6149924478"
"10173398","ป้ายรถประจำทาง ถนนเลียบวารี","13.855775","100.851541"
"10173397","ป้ายรถประจำทาง","13.7587875298","100.4950652819"
"10173396","ป้ายรถประจำทาง ซอยติวานนท์-ปากเกร็ด 22","13.9159955","100.5139422"
"10173395","ป้ายรถประจำทาง โรงเรียนต้นส้ม","13.7525711","100.4780252"
"10173394","ป้ายรถประจำทาง","13.7153832806","100.4772306785"
"10173393","ป้ายรถประจำทาง หมู่บ้านลานทอง","13.9183848","100.5168366"
"10173392","ป้ายรถประจำทาง ราษฏ์บูรณะ 46","13.6721076","100.5186744"
"10173391","ป้ายรถประจำทาง","13.7172331","100.5709928"
"10173390","ป้ายรถประจำทาง รังสิต-นครนายก 27","13.989439","100.6385194"
"10173389","ป้ายรถประจำทาง อิสรภาพ 37","13.7501649","100.4785121"
"10173388","ป้ายรถประจำทาง กรมทางหลวง","13.7610666","100.5276147"
"10173387","ป้ายรถประจำทาง เลียบวารี 18","13.8556989","100.8494446"
"10173386","ป้ายรถประจำทาง","13.7371502627","100.4857929853"
"10173385","ป้ายรถประจำทาง แยกตัดทางหลวง 306","13.9683595","100.5509387"
"10173384","ป้ายรถประจำทาง โรงเรียนจินดาอักษร","13.7035248","100.5040062"
"10173383","ป้ายรถประจำทาง","13.7617011935","100.504636808"
"10173382","ป้ายรถประจำทาง บ้านใหม่","13.9575929","100.5508212"
"10173381","ป้ายรถประจำทาง ซอยอิสรภาพ 17/1","13.7352597","100.4889335"
"10173380","ป้ายรถประจำทาง พุทธมณฑลสาย 2-บรมราชชนนี","13.7847284","100.3960686"
"10173379","ป้ายรถประจำทาง","13.8779705969","100.4593117001"
"10173378","ป้ายรถประจำทาง โรงเรียนนารีนิรมล","13.7033595","100.6020307"
"10173377","ป้ายรถประจำทาง เมเจอร์ฮอลิวูดปากเกร็ด","13.9078611","100.5026547"
"10173376","ป้ายรถประจำทาง วัดนายโรง","13.7704143076","100.4792491766"
"10173375","ป้ายรถประจำทาง โรงแรมดิเอมเมอรัล","13.7917067","100.5743636"
"10173374","ป้ายรถประจำทาง","13.6321100446","100.6191283599"
"10173373","ป้ายรถประจำทาง หมู่บ้านพระปิ่น 2","13.7866039","100.3777698"
"10173372","ป้ายรถประจำทาง สวนจงสถิตย์ปาร์ค","13.6232659","100.354179"
"10173371","ป้ายรถประจำทาง โรงแรม 999","13.7292669","100.5860007"
"10173370","ป้ายรถประจำทาง โรงเรียนมีนประสาทวิทยา","13.8087386","100.7296119"
"10173369","ป้ายรถประจำทาง เจริญนคร 22-23","13.7159255","100.5064323"
"10173368","ป้ายรถประจำทาง กระทรวงศึกษาธิการ","13.7622618","100.5145105"
"10173367","ป้ายรถประจำทาง ไทเอฟซี อินเตอร์ฟูด","13.7316724","100.5868622"
"10173366","ป้ายรถประจำทาง แมคโครจรัญ","13.7621373774","100.4721504892"
"10173365","ป้ายรถประจำทาง","13.72728264","100.4979983186"
"10173364","ป้ายรถประจำทาง วัดธาตุทอง","13.7188367","100.5859489"
"10173363","ป้ายรถประจำทาง หมู่บ้านพระปิ่น 2","13.786712","100.375926"
"10173362","ป้ายรถประจำทาง กรมศิลปากร","13.752828","100.4913454"
"10173361","ป้ายรถประจำทาง รังสิต-นครนายก 21","13.9884948","100.6341868"
"10173360","ป้ายรถประจำทาง ตลาดบางขุนศรี","13.7591837","100.4696559"
"10173359","ป้ายรถประจำทาง","13.6535136","100.6744995"
"10173358","ป้ายรถประจำทาง วัดแขก","13.7258215245","100.5262925614"
"10173357","ป้ายรถประจำทาง MRT ลาดพร้าว","13.8057868","100.5739977"
"10173356","ป้ายรถประจำทาง ตรงข้ามซอยประชาราษฎ์ 13","13.8435652","100.4968652"
"10173355","ป้ายรถประจำทาง วัดโพธิ์เรียง","13.7441601","100.4702396"
"10173354","ป้ายรถประจำทาง","13.5806254","100.6227547"
"10173353","ป้ายรถประจำทาง รังสิต-นครนายก 15","13.9868157","100.6267247"
"10173352","ป้ายรถประจำทาง ท่ารถสาย 2","13.7489725718","100.4961179288"
"10173351","ป้ายรถประจำทาง วัดเพลง","13.7579810173","100.4691379626"
"10173350","ป้ายรถประจำทาง","13.7654631029","100.5063446894"
"10173349","ป้ายรถประจำทาง ตึกโอลิมเปีย","13.8002511","100.5748243"
"10173348","ป้ายรถประจำทาง ตลาดบางขุนนนท์","13.7643751","100.473572"
"10173347","ป้ายรถประจำทาง ร้านบุญถาวรบรมราชชนนี","13.7872325","100.3717308"
"10173346","ป้ายรถประจำทาง โรงแรมปทุมธานีเพลส","13.9751741","100.5507599"
"10173345","ป้ายรถประจำทาง เฉลิมกรุง","13.7520572025","100.5030177466"
"10173344","ป้ายรถประจำทาง วัดราชนัดดาราม(มหาไชย)","13.7543873318","100.5049789626"
"10173343","ป้ายรถประจำทาง ตรงข้ามเลียบวารี 11","13.8555258","100.8470223"
"10173342","ป้ายรถประจำทาง ซอยอนามัย","13.6795862","100.4958616"
"10173341","ป้ายรถประจำทาง","13.5991024","100.597665"
"10173340","ป้ายรถประจำทาง","13.7511775106","100.5083199604"
"10173339","ป้ายรถประจำทาง ซอยบรมราชชนนี 72","13.7874748","100.3678669"
"10173338","ป้ายรถประจำทาง วัดบวร","13.7612536231","100.4994512508"
"10173337","ป้ายรถประจำทาง วัดศรีสุดาราม","13.7662822","100.4718604"
"10173336","ป้ายรถประจำทาง เทเวศร์ 3","13.7652460336","100.5074352449"
"10173335","sukumvit 7/1","13.7406997384","100.5554573332"
"10173334","ป้ายรถประจำทาง กรมรักษาดินแดง2","13.7468370185","100.4964913167"
"10173333","ป้ายรถประจำทาง รังสิต-นครนายก 5","13.9857662","100.6219928"
"10173332","ป้ายรถประจำทาง พุทธมณฑลสาย 3-บรมราชชนนี","13.7879932","100.3644967"
"10173331","ป้ายรถประจำทาง","13.7315093","100.5312944"
"10173330","ป้ายรถประจำทาง ซอยแจ่มจันทร์","13.7388051","100.5890892"
"10173329","ป้ายรถประจำทาง","13.8127007","100.5500823"
"10173327","ป้ายรถประจำทาง สำนักงานไปรษณีย์บางขุนนนท์","13.7680869","100.4702959"
"10173326","ป้ายรถประจำทาง ตรงข้ามหมู่บ้านบางเมืองแลนด์เฮาส์","13.59863","100.6125892"
"10173325","ป้ายรถประจำทาง บางกอกกอล์ฟคลับ","13.9774471","100.5507555"
"10173324","ป้ายรถประจำทาง","13.7338135","100.5339181"
"10173323","ป้ายรถประจำทาง","13.7322471","100.5337452"
"10173322","ป้ายรถประจำทาง","13.890589","100.5673315"
"10173321","ป้ายรถประจำทาง เลียบวารี 26","13.8551943","100.8433107"
"10173320","ป้ายรถประจำทาง ซอยเสรี","13.7895749","100.7462999"
"10173319","ป้ายรถประจำทาง ตรงข้ามซอยหมู่บ้านสุภาวัลย์","13.6120826","100.6190009"
"10173318","ป้ายรถประจำทาง","13.7345107","100.5343926"
"10173317","ป้ายรถประจำทาง","13.7388227","100.5350082"
"10173316","ป้ายรถประจำทาง","13.659953","100.6627763"
"10173315","ป้ายรถประจำทาง","13.7412003","100.5352368"
"10173314","ป้ายรถประจำทาง องค์การสวนยาง","13.7697191","100.4691089"
"10173313","ป้ายรถประจำทาง","13.7222747","100.725896"
"10173312","ป้ายรถประจำทาง","13.7151377","100.5910587"
"10173311","ป้ายรถประจำทาง","13.782342576","100.7216985148"
"10173310","ป้ายรถประจำทาง ตรงข้ามชุมชนพิบูรณ์ทรัพย์ 1","13.8547402","100.8386699"
"10173309","ป้ายรถประจำทาง","13.743121","100.5355497"
"10173308","ป้ายรถประจำทาง เทเวศร์ 3","13.7672896721","100.5056304233"
"10173307","ป้ายรถประจำทาง ซอยเอกชัย 107","13.6509552","100.3877285"
"10173306","ป้ายรถประจำทาง","13.6201958","100.6233371"
"10173305","ป้ายรถประจำทาง สำนักงานเขตทวีวัฒนา","13.78845","100.3393399"
"10173304","ป้ายรถประจำทาง ซอยชวาล 1","13.6234568","100.6249583"
"10173303","ป้ายรถประจำทาง ซอยหงส์สกุล","14.0191462","100.6157982"
"10173302","ป้ายรถประจำทาง หมู่บ้านอยู่เจริญ","13.9413478","100.6132878"
"10173301","ป้ายรถประจำทาง โรงพยาบาลพญาไท 2","13.76993","100.5409489"
"10173300","ป้ายรถประจำทาง ตรงข้าม วัดใหม่ช่องลม","13.7472992","100.5744282"
"10173299","ป้ายรถประจำทาง แยกวัดเกาะ","13.9022125","100.6122516"
"10173298","ป้ายรถประจำทาง ตรงข้ามเทสโก้โลตัสศาลายา","13.7868279","100.2982723"
"10173297","ป้ายรถประจำทาง วัดอินทราราม 4","13.7228744","100.4837098"
"10173296","ป้ายรถประจำทาง วัดเจ้าอาม","13.7756991","100.4659611"
"10173295","ป้ายรถประจำทาง สถาบันเทคโนโลยีนานาชาติสิรินธร ม.ธรรมศาสตร์","13.9826674","100.5508528"
"10173294","ป้ายรถประจำทาง ธ.กสิกรไทยเทเวศน์","13.7688594","100.5043291"
"10173293","ป้ายรถประจำทาง ซอยเอกชัย 107","13.6518371","100.3889025"
"10173292","ป้ายรถประจำทาง สำนักผังเมือง","13.7552964","100.5743384"
"10173291","ป้ายรถประจำทาง หมู่บ้าน พฤกษ์ลดา ปิ่นเกล้า สาย5","13.7866192","100.2927379"
"10173290","ป้ายรถประจำทาง หมู่บ้านนครทอง","13.6162531","100.6213304"
"10173289","ป้ายรถประจำทาง วัดบางกระดี่","13.993292","100.5509493"
"10173288","ป้ายรถประจำทาง","13.7643217935","100.5779607337"
"10173287","ป้ายรถประจำทาง","13.8621319742","100.569093055"
"10173286","ป้ายรถประจำทาง ตลาดวัดกลาง","13.7204554","100.475524"
"10173285","ป้ายรถประจำทาง","13.8141316","100.5589869"
"10173284","ป้ายรถประจำทาง กรมบังคับคดี","13.7772391","100.4652351"
"10173283","ป้ายรถประจำทาง ซอยเอกชัย 105","13.6540548","100.3917476"
"10173282","ป้ายรถประจำทาง สำนักงานเขตบางรัก","13.7298640869","100.5236839786"
"10173281","ป้ายรถประจำทาง สถานีขนส่งสินค้าพุทธมณฑล","13.7864195","100.2884056"
"10173280","ป้ายรถประจำทาง ซอยเอกชัย 89/8","13.6667759","100.4127252"
"10173279","ป้ายรถประจำทาง บิ๊กซี ร่มเกล้า","13.8110599","100.7375819"
"10173278","ป้ายรถประจำทาง ซอยเพชรเกษม 46","13.7160925","100.4470957"
"10173277","ป้ายรถประจำทาง","13.6263503","100.6265279"
"10173276","ป้ายรถประจำทาง โรงเรียนเทศบาล 2","13.8438716","100.4985372"
"10173275","ป้ายรถประจำทาง แยกชักพระ","13.7812758","100.4648352"
"10173274","ป้ายรถประจำทาง","13.7547453","100.5327858"
"10173273","ป้ายรถประจำทาง ชุมชนสันติสุข","13.7133472","100.4714921"
"10173272","ป้ายรถประจำทาง ตรงข้ามชุมชนทรัพย์เจริญ","13.8546588","100.8377289"
"10173271","ป้ายรถประจำทาง ตลาดน้ำดอนหวาย","13.7734526","100.2836134"
"10173270","ป้ายรถประจำทาง ซอยเอกชัย 101","13.6555836","100.3937022"
"10173269","ป้ายรถประจำทาง ตลาดราษฎร์บูรณะเก่า","13.6653071","100.5037621"
"10173268","ป้ายรถประจำทาง","13.6267674","100.5061205"
"10173267","ป้ายรถประจำทาง บิ๊กซีราชดำริ","13.7545285","100.5280895"
"10173266","ป้ายรถประจำทาง รร.รอย้ลปริ๊นซ์ดุสิต","13.6970433","100.6475019"
"10173265","ป้ายรถประจำทาง","13.7147032062","100.5774955649"
"10173264","ป้ายรถประจำทาง บางขุนนนท์ทาวเวอร์","13.7814252","100.4640875"
"10173263","ป้ายรถประจำทาง ซอยเอกชัย 89/2","13.6690112","100.4166816"
"10173262","ป้ายรถประจำทาง วิลล่าคาเฟ่","13.7521615","100.5901841"
"10173261","ป้ายรถประจำทาง ตรงข้ามหมู่บ้านนันทวัน 10","13.8543414","100.8342714"
"10173260","ป้ายรถประจำทาง โรงแรมกู๊ดอินน์","13.6880053","100.4917207"
"10173259","ป้ายรถประจำทาง","13.7164654","100.5732974"
"10173258","ป้ายรถประจำทาง ซอย 5 เจดีย์","13.71652","100.47224"
"10173257","ป้ายรถประจำทาง อาร์เอสแมนชั่น","13.75002","100.59571"
"10173256","ป้ายรถประจำทาง วัดดอนหวาย","13.7721266","100.2852485"
"10173255","ป้ายรถประจำทาง ตรงข้ามเลียบวารี 41","13.8539362","100.8301057"
"10173254","ป้ายรถประจำทาง ซอยศรีด่าน 4","13.6365288","100.6322569"
"10173253","ป้ายรถประจำทาง","13.6671138","100.6832442"
"10173252","ป้ายรถประจำทาง","13.7495069","100.5633792"
"10173251","ป้ายรถประจำทาง สถานเสาวภา","13.7310287","100.5326856"
"10173250","ป้ายรถประจำทาง แยกชักพระ","13.7812682","100.464773"
"10173249","ป้ายรถประจำทาง ที่ดินบางกอกน้อย","13.7811808203","100.4888532411"
"10173248","ป้ายรถประจำทาง ประชาอุทิศ ซอย 22","13.6609463","100.5018311"
"10173247","ป้ายรถประจำทาง ชุมชนสันติสุข","13.7134693","100.4714198"
"10173246","ป้ายรถประจำทาง ตลาดดอนหวาย","13.7684395","100.2859196"
"10173245","ป้ายรถประจำทาง ตรงข้ามเลียบวารี 53","13.8533606","100.8235145"
"10173244","ป้ายรถประจำทาง หมู่บ้านรุ่งนภา 2","13.8106732","100.7341483"
"10173243","ป้ายรถประจำทาง สำนักงานเขตตลิ่งชัน","13.7793688301","100.4579993907"
"10173242","ป้ายรถประจำทาง โรงพยาบาลเยาวรักษ์","13.7187001","100.4725148"
"10173241","ป้ายรถประจำทาง ตรงข้ามชุมชนร่วมพัฒนาสินอนันต์","13.8531494","100.8220083"
"10173240","ป้ายรถประจำทาง","13.7346994","100.6435076"
"10173239","ป้ายรถประจำทาง แยกสวนหลวง","13.7119961","100.6440778"
"10173238","ป้ายรถประจำทาง","13.7791907555","100.4517611437"
"10173237","ป้ายรถประจำทาง ตลาดวัดกลาง","13.7203627","100.4755114"
"10173234","ป้ายรถประจำทาง โรงเรียนการัญศึกษา","13.8359408","100.4986926"
"10173233","ป้ายรถประจำทาง โรงเรียนการัญศึกษา","13.835998","100.4989397"
"10173232","ป้ายรถประจำทาง วัดอินทราราม","13.7218762307","100.4809192901"
"10173231","ป้ายรถประจำทาง ตรงข้ามเลียบวารี 11","13.8528538","100.8187709"
"10173230","ป้ายรถประจำทาง สถานีตำรวจดับเพลิงบางอ้อ","13.8026167","100.5115771"
"10173227","ป้ายรถประจำทาง วัดกำแพง","13.8316671","100.5006424"
"10173226","ป้ายรถประจำทาง สะพานวุฒากาศ 1","13.7113839","100.4706031"
"10173225","ป้ายรถประจำทาง รพ.วชิระ","13.8246122658","100.4806911564"
"10173224","ป้ายรถประจำทาง ตรงข้ามซอยไร่ขิง 42","13.7624732","100.2853972"
"10173223","ป้ายรถประจำทาง หมู่บ้านพรหมนิเวศน์","13.8808746","100.5404079"
"10173221","ป้ายรถประจำทาง อนามัย 29 พุธเนตร","13.7061025","100.4682958"
"10173220","ป้ายรถประจำทาง ตลาดกรุงธน","13.8101710838","100.5126455259"
"10173219","ป้ายรถประจำทาง คอนโดวิกเตอร์ไร","13.8264647","100.5028251"
"10173218","ป้ายรถประจำทาง ปั๊มบางจากซอยไร่ขิง","13.7565948","100.2825559"
"10173217","ป้ายรถประจำทาง ปราบปรามยาเสพติด","13.7656893","100.5491736"
"10173216","ป้ายรถประจำทาง","13.6567986","100.4990955"
"10173215","ป้ายรถประจำทาง","13.821962","100.5581396"
"10173214","ป้ายรถประจำทาง","13.7803608928","100.4428939945"
"10173213","ป้ายรถประจำทาง","13.7302433","100.6533855"
"10173212","ป้ายรถประจำทาง โรงเรียนเซนต์จอห์น","13.8101596","100.5591967"
"10173211","ป้ายรถประจำทาง ซอยบรมราชชนนี 52","13.7805347","100.4355778"
"10173210","ป้ายรถประจำทาง หมู่บ้านประชาชื่น","13.8805007","100.5437051"
"10173209","ป้ายรถประจำทาง โรงพยาบาลยันฮี","13.8006049","100.5109459"
"10173208","ป้ายรถประจำทาง ซอยเลิศเหนือ-เลิศใต้","13.6973024","100.4734459"
"10173207","ป้ายรถประจำทาง","13.7690944087","100.5031145022"
"10173206","ป้ายรถประจำทาง","13.7244931","100.549184"
"10173205","ป้ายรถประจำทาง ซอยศรีด่าน 8","13.6392468","100.6338998"
"10173204","ป้ายรถประจำทาง วัดนายโรง","13.8111236587","100.5110133853"
"10173203","ป้ายรถประจำทาง ป.เวชภัณฑ์","13.7790328","100.4865557"
"10173202","ป้ายรถประจำทาง","13.7946576218","100.5063268368"
"10173201","ป้ายรถประจำทาง วัดท่าพูด","13.7471048","100.2769595"
"10173200","ป้ายรถประจำทาง ทางรถไฟวัดนางนอง","13.7032475","100.46709"
"10173199","ป้ายรถประจำทาง ตรงข้ามชุมชนแผนดินทอง","13.8525651","100.8155007"
"10173198","ป้ายรถประจำทาง หมู่บ้านประชานิเวศน์ 2","13.8802856","100.5450504"
"10173196","ป้ายรถประจำทาง ซอยศรีด่าน 14","13.6419128","100.6354675"
"10173195","ป้ายรถประจำทาง วัดเขมา","13.8242558","100.50354"
"10173194","ป้ายรถประจำทาง ธนาคารแห่งประเทศไทย","13.7680732832","100.5020717231"
"10173193","ป้ายรถประจำทาง โรงเรียนฮาซานันเอี๊ยะซาน","13.8523154","100.8128371"
"10173192","ป้ายรถประจำทาง ธนาคารกสิกรไทย บางอ้อ","13.7929312","100.5051774"
"10173191","ป้ายรถประจำทาง ตรงข้ามซอยประชาร่วมใจ","13.7444215","100.2729013"
"10173190","ป้ายรถประจำทาง","13.8222387","100.5052169"
"10173189","ป้ายรถประจำทาง ซอยอินทรพิทักษ์ 5","13.7266972","100.4898601"
"10173188","ป้ายรถประจำทาง บริบัท พูลผล จำกัด","13.8197081","100.5101073"
"10173187","ป้ายรถประจำทาง ป.เชอร์วิส","13.85082","100.805275"
"10173186","ป้ายรถประจำทาง มหาวิทยาลัยเกษมบัณฑิต วิทยาเขตร่มเกล้า","13.8043564","100.7411469"
"10173183","ป้ายรถประจำทาง วัดสามพระยา","13.765647735","100.5002793012"
"10173182","ป้ายรถประจำทาง ตรงข้ามซอยสุดสุขถาวร","13.7429221","100.2700787"
"10173181","ป้ายรถประจำทาง ห้างคาร์ฟูร์ศรีนครินทร์","13.6496913","100.6401149"
"10173180","ป้ายรถประจำทาง","13.6538254","100.4974446"
"10173178","ป้ายรถประจำทาง","13.6512747","100.4871985"
"10173177","ป้ายรถประจำทาง","13.6673444","100.6346516"
"10173176","ป้ายรถประจำทาง ตรงข้ามสถานีขนส่งสายใต้","13.7818404","100.4230303"
"10173175","ป้ายรถประจำทาง","13.665924","100.6417632"
"10173174","ป้ายรถประจำทาง","13.7454004","100.6436062"
"10173173","ป้ายรถประจำทาง โบสถ์แม่พระฟาติมา","13.7600168","100.5556187"
"10173172","ป้ายรถประจำทาง ปราบปรามยาเสพติด","13.7670997","100.5491114"
"10173171","ป้ายรถประจำทาง โรงเรียนประชาอุปถัมย์","13.8787331","100.5476394"
