{
  "stations": [
    {
      "osm_id": 70753469,
      "lat": 13.7794448,
      "lon": 100.5299374,
      "name": "สามเสน",
      "name_en": "Sam Sen",
      "name_th": "สามเสน",
      "ref": "สส.",
      "network": "",
      "line": "",
      "operator": "",
      "railway": "station",
      "public_transport": "station",
      "station": ""
    },
    {
      "osm_id": 249644272,
      "lat": 13.8024806,
      "lon": 100.3243619,
      "name": "ศาลายา",
      "name_en": "Sala Ya",
      "name_th": "ศาลายา",
      "ref": "ลย.",
      "network": "",
      "line": "",
      "operator": "",
      "railway": "station",
      "public_transport": "station",
      "station": ""
    },
    {
      "osm_id": 257066779,
      "lat": 13.7192683,
      "lon": 100.5214619,
      "name": "สุรศักดิ์",
      "name_en": "Surasak",
      "name_th": "สุรศักดิ์",
      "ref": "S5",
      "network": "BTS",
      "line": "",
      "operator": "ระบบขนส่งมวลชนกรุงเทพ",
      "railway": "station",
      "public_transport": "station",
      "station": "subway"
    },
    {
      "osm_id": 257066790,
      "lat": 13.7237969,
      "lon": 100.529325,
      "name": "ช่องนนทรี",
      "name_en": "Chong Nonsi",
      "name_th": "ช่องนนทรี",
      "ref": "S3",
      "network": "",
      "line": "",
      "operator": "ระบบขนส่งมวลชนกรุงเทพ",
      "railway": "station",
      "public_transport": "station",
      "station": "subway"
    },
    {
      "osm_id": 257066809,
      "lat": 13.7394708,
      "lon": 100.5394496,
      "name": "ราชดำริ",
      "name_en": "Ratchadamri",
      "name_th": "ราชดำริ",
      "ref": "S1",
      "network": "",
      "line": "",
      "operator": "ระบบขนส่งมวลชนกรุงเทพ",
      "railway": "station",
      "public_transport": "station",
      "station": "subway"
    },
    {
      "osm_id": 257067085,
      "lat": 13.7188128,
      "lon": 100.514223,
      "name": "สะพานตากสิน",
      "name_en": "Saphan Taksin",
      "name_th": "สะพานตากสิน",
      "ref": "S6",
      "network": "",
      "line": "",
      "operator": "ระบบขนส่งมวลชนกรุงเทพ",
      "railway": "station",
      "public_transport": "station",
      "station": "subway"
    },
    {
      "osm_id": 259723396,
      "lat": 13.7665394,
      "lon": 100.5247073,
      "name": "จิตรลดา",
      "name_en": "Chitlada",
      "name_th": "จิตรลดา",
      "ref": "จล.",
      "network": "",
      "line": "",
      "operator": "",
      "railway": "station",
      "public_transport": "station",
      "station": ""
    },
    {
      "osm_id": 280179404,
      "lat": 13.7375708,
      "lon": 100.517135,
      "name": "หัวลำโพง",
      "name_en": "Hua Lamphong",
      "name_th": "หัวลำโพง",
      "ref": "BL28",
      "network": "",
      "line": "",
      "operator": "ทางด่วนและรถไฟฟ้ากรุงเทพ",
      "railway": "station",
      "public_transport": "station",
      "station": "subway"
    },
    {
      "osm_id": 280179427,
      "lat": 13.7578166,
      "lon": 100.5652774,
      "name": "พระราม 9",
      "name_en": "Phra Ram 9",
      "name_th": "พระราม 9",
      "ref": "BL20",
      "network": "",
      "line": "",
      "operator": "ทางด่วนและรถไฟฟ้ากรุงเทพ",
      "railway": "station",
      "public_transport": "station",
      "station": "subway"
    },
    {
      "osm_id": 280179448,
      "lat": 13.7226725,
      "lon": 100.5599134,
      "name": "ศูนย์การประชุมแห่งชาติสิริกิติ์",
      "name_en": "Queen Sirikit National Convention Centre",
      "name_th": "ศูนย์การประชุมแห่งชาติสิริกิติ์",
      "ref": "BL23",
      "network": "",
      "line": "",
      "operator": "ทางด่วนและรถไฟฟ้ากรุงเทพ",
      "railway": "station",
      "public_transport": "station",
      "station": "subway"
    },
    {
      "osm_id": 280222462,
      "lat": 13.7256066,
      "lon": 100.5457249,
      "name": "ลุมพินี",
      "name_en": "Lumphini",
      "name_th": "ลุมพินี",
      "ref": "BL25",
      "network": "",
      "line": "",
      "operator": "ทางด่วนและรถไฟฟ้ากรุงเทพ",
      "railway": "station",
      "public_transport": "station",
      "station": "subway"
    },
    {
      "osm_id": 280239009,
      "lat": 13.7786878,
      "lon": 100.5735662,
      "name": "ห้วยขวาง",
      "name_en": "Huai Khwang",
      "name_th": "ห้วยขวาง",
      "ref": "BL18",
      "network": "",
      "line": "",
      "operator": "ทางด่วนและรถไฟฟ้ากรุงเทพ",
      "railway": "station",
      "public_transport": "station",
      "station": "subway"
    },
    {
      "osm_id": 280239362,
      "lat": 13.7894884,
      "lon": 100.5740801,
      "name": "สุทธิสาร",
      "name_en": "Sutthisan",
      "name_th": "สุทธิสาร",
      "ref": "BL17",
      "network": "",
      "line": "",
      "operator": "ทางด่วนและรถไฟฟ้ากรุงเทพ",
      "railway": "station",
      "public_transport": "station",
      "station": "subway"
    },
    {
      "osm_id": 280239363,
      "lat": 13.7989706,
      "lon": 100.5745537,
      "name": "รัชดาภิเษก",
      "name_en": "Ratchadaphisek",
      "name_th": "รัชดาภิเษก",
      "ref": "BL16",
      "network": "",
      "line": "",
      "operator": "ทางด่วนและรถไฟฟ้ากรุงเทพ",
      "railway": "station",
      "public_transport": "station",
      "station": "subway"
    },
    {
      "osm_id": 280240574,
      "lat": 13.7662912,
      "lon": 100.570083,
      "name": "ศูนย์วัฒนธรรมแห่งประเทศไทย",
      "name_en": "Thailand Cultural Centre",
      "name_th": "ศูนย์วัฒนธรรมแห่งประเทศไทย",
      "ref": "BL19",
      "network": "",
      "line": "",
      "operator": "ทางด่วนและรถไฟฟ้ากรุงเทพ",
      "railway": "station",
      "public_transport": "station",
      "station": "subway"
    },
    {
      "osm_id": 280240577,
      "lat": 13.806503,
      "lon": 100.5728701,
      "name": "ลาดพร้าว",
      "name_en": "Lat Phrao",
      "name_th": "ลาดพร้าว",
      "ref": "BL15",
      "network": "",
      "line": "",
      "operator": "ทางด่วนและรถไฟฟ้ากรุงเทพ",
      "railway": "station",
      "public_transport": "station",
      "station": "subway"
    },
    {
      "osm_id": 280240580,
      "lat": 13.8128808,
      "lon": 100.5614634,
      "name": "พหลโยธิน",
      "name_en": "Phahon Yothin",
      "name_th": "พหลโยธิน",
      "ref": "BL14",
      "network": "",
      "line": "",
      "operator": "ทางด่วนและรถไฟฟ้ากรุงเทพ",
      "railway": "station",
      "public_transport": "station",
      "station": "subway"
    },
    {
      "osm_id": 280240585,
      "lat": 13.8029643,
      "lon": 100.5532845,
      "name": "สวนจตุจักร",
      "name_en": "Chatuchak Park",
      "name_th": "สวนจตุจักร",
      "ref": "BL13",
      "network": "MRT",
      "line": "",
      "operator": "ทางด่วนและรถไฟฟ้ากรุงเทพ",
      "railway": "station",
      "public_transport": "station",
      "station": "subway"
    },
    {
      "osm_id": 280240589,
      "lat": 13.7979484,
      "lon": 100.5478837,
      "name": "กำแพงเพชร",
      "name_en": "Kamphaeng Phet",
      "name_th": "กำแพงเพชร",
      "ref": "BL12",
      "network": "",
      "line": "",
      "operator": "ทางด่วนและรถไฟฟ้ากรุงเทพ",
      "railway": "station",
      "public_transport": "station",
      "station": "subway"
    },
    {
      "osm_id": 280729450,
      "lat": 13.7221264,
      "lon": 100.5543696,
      "name": "คลองเตย",
      "name_en": "Khlong Toei",
      "name_th": "คลองเตย",
      "ref": "BL24",
      "network": "",
      "line": "",
      "operator": "ทางด่วนและรถไฟฟ้ากรุงเทพ",
      "railway": "station",
      "public_transport": "station",
      "station": "subway"
    },
    {
      "osm_id": 305693940,
      "lat": 13.7192426,
      "lon": 100.4859681,
      "name": "โพธิ์นิมิตร",
      "name_en": "Pho Nimit",
      "name_th": "โพธิ์นิมิตร",
      "ref": "S9",
      "network": "BTS",
      "line": "",
      "operator": "กรุงเทพธนาคม",
      "railway": "station",
      "public_transport": "station",
      "station": "subway"
    },
    {
      "osm_id": 340133002,
      "lat": 13.7142201,
      "lon": 100.4766912,
      "name": "ตลาดพลู",
      "name_en": "Talat Phlu",
      "name_th": "ตลาดพลู",
      "ref": "S10",
      "network": "BTS",
      "line": "",
      "operator": "กรุงเทพธนาคม",
      "railway": "station",
      "public_transport": "station",
      "station": "subway"
    },
    {
      "osm_id": 358613848,
      "lat": 13.758628,
      "lon": 100.5214744,
      "name": "ยมราช",
      "name_en": "Yommarat",
      "name_th": "ยมราช",
      "ref": "ยช.",
      "network": "",
      "line": "",
      "operator": "",
      "railway": "halt",
      "public_transport": "station",
      "station": ""
    },
    {
      "osm_id": 360166991,
      "lat": 13.7685073,
      "lon": 100.5255047,
      "name": "โรงพยาบาลรามาธิบดี",
      "name_en": "Ramathibodi Hospital",
      "name_th": "โรงพยาบาลรามาธิบดี",
      "ref": "รธ.",
      "network": "",
      "line": "",
      "operator": "",
      "railway": "halt",
      "public_transport": "station",
      "station": ""
    },
    {
      "osm_id": 443815142,
      "lat": 13.7210816,
      "lon": 100.4951594,
      "name": "วงเวียนใหญ่",
      "name_en": "Wongwian Yai",
      "name_th": "วงเวียนใหญ่",
      "ref": "S8",
      "network": "BTS",
      "line": "",
      "operator": "ระบบขนส่งมวลชนกรุงเทพ",
      "railway": "station",
      "public_transport": "station",
      "station": "subway"
    },
    {
      "osm_id": 443815144,
      "lat": 13.7209307,
      "lon": 100.5027176,
      "name": "กรุงธนบุรี",
      "name_en": "Krung Thon Buri",
      "name_th": "กรุงธนบุรี",
      "ref": "S7",
      "network": "BTS",
      "line": "",
      "operator": "ระบบขนส่งมวลชนกรุงเทพ",
      "railway": "station",
      "public_transport": "station",
      "station": "subway"
    },
    {
      "osm_id": 444979563,
      "lat": 13.7329633,
      "lon": 100.6887304,
      "name": "บ้านทับช้าง",
      "name_en": "Ban Thap Chang",
      "name_th": "บ้านทับช้าง",
      "ref": "ทช.",
      "network": "การรถไฟแห่งประเทศไทย",
      "line": "",
      "operator": "",
      "railway": "station",
      "public_transport": "station",
      "station": ""
    },
    {
      "osm_id": 451697335,
      "lat": 13.7285677,
      "lon": 100.5343416,
      "name": "ศาลาแดง",
      "name_en": "Sala Daeng",
      "name_th": "ศาลาแดง",
      "ref": "S2",
      "network": "",
      "line": "",
      "operator": "ระบบขนส่งมวลชนกรุงเทพ",
      "railway": "station",
      "public_transport": "station",
      "station": "subway"
    },
    {
      "osm_id": 674670271,
      "lat": 13.5630261,
      "lon": 100.3135261,
      "name": "บ้านขอม",
      "name_en": "Ban Khom",
      "name_th": "บ้านขอม",
      "ref": "ขม.",
      "network": "",
      "line": "",
      "operator": "การรถไฟแห่งประเทศไทย",
      "railway": "halt",
      "public_transport": "station",
      "station": ""
    },
    {
      "osm_id": 674670279,
      "lat": 13.6209828,
      "lon": 100.3780143,
      "name": "พรมแดน",
      "name_en": "Phrom Daen",
      "name_th": "พรมแดน",
      "ref": "พแ.",
      "network": "",
      "line": "",
      "operator": "การรถไฟแห่งประเทศไทย",
      "railway": "halt",
      "public_transport": "station",
      "station": ""
    },
    {
      "osm_id": 674670289,
      "lat": 13.683249,
      "lon": 100.4476577,
      "name": "วัดสิงห์",
      "name_en": "Wat Sing",
      "name_th": "วัดสิงห์",
      "ref": "สิ.",
      "network": "การรถไฟแห่งประเทศไทย",
      "line": "",
      "operator": "การรถไฟแห่งประเทศไทย",
      "railway": "station",
      "public_transport": "station",
      "station": ""
    },
    {
      "osm_id": 674670294,
      "lat": 13.6915585,
      "lon": 100.4575599,
      "name": "วัดไทร",
      "name_en": "Wat Sai",
      "name_th": "วัดไทร",
      "ref": "วซ.",
      "network": "",
      "line": "",
      "operator": "การรถไฟแห่งประเทศไทย",
      "railway": "halt",
      "public_transport": "station",
      "station": ""
    },
    {
      "osm_id": 674670328,
      "lat": 13.7208188,
      "lon": 100.4780183,
      "name": "ตลาดพลู",
      "name_en": "Talat Phlu",
      "name_th": "ตลาดพลู",
      "ref": "ลู.",
      "network": "การรถไฟแห่งประเทศไทย",
      "line": "",
      "operator": "การรถไฟแห่งประเทศไทย",
      "railway": "station",
      "public_transport": "station",
      "station": ""
    },
    {
      "osm_id": 674670334,
      "lat": 13.7243925,
      "lon": 100.4912323,
      "name": "วงเวียนใหญ่",
      "name_en": "Wongwian Yai",
      "name_th": "วงเวียนใหญ่",
      "ref": "งญ.",
      "network": "การรถไฟแห่งประเทศไทย",
      "line": "",
      "operator": "การรถไฟแห่งประเทศไทย",
      "railway": "station",
      "public_transport": "station",
      "station": ""
    },
    {
      "osm_id": 917014949,
      "lat": 13.7510665,
      "lon": 100.5598134,
      "name": "มักกะสัน",
      "name_en": "Makkasan",
      "name_th": "มักกะสัน",
      "ref": "A6",
      "network": "ARL",
      "line": "",
      "operator": "",
      "railway": "stop",
      "public_transport": "stop_position",
      "station": ""
    },
    {
      "osm_id": 917014975,
      "lat": 13.7568305,
      "lon": 100.5344903,
      "name": "พญาไท",
      "name_en": "Phaya Thai",
      "name_th": "พญาไท",
      "ref": "A8",
      "network": "ARL",
      "line": "",
      "operator": "",
      "railway": "stop",
      "public_transport": "stop_position",
      "station": ""
    },
    {
      "osm_id": 917014985,
      "lat": 13.7550886,
      "lon": 100.5420479,
      "name": "ราชปรารภ",
      "name_en": "Ratchaprarop",
      "name_th": "ราชปรารภ",
      "ref": "A7",
      "network": "ARL",
      "line": "",
      "operator": "",
      "railway": "stop",
      "public_transport": "stop_position",
      "station": ""
    },
    {
      "osm_id": 917022633,
      "lat": 13.6948432,
      "lon": 100.751388,
      "name": "สุวรรณภูมิ",
      "name_en": "Suvarnabhumi",
      "name_th": "สุวรรณภูมิ",
      "ref": "A1",
      "network": "ARL",
      "line": "",
      "operator": "",
      "railway": "stop",
      "public_transport": "stop_position",
      "station": ""
    },
    {
      "osm_id": 970112998,
      "lat": 13.7380166,
      "lon": 100.6452618,
      "name": "หัวหมาก",
      "name_en": "Hua Mak",
      "name_th": "หัวหมาก",
      "ref": "A4",
      "network": "ARL",
      "line": "",
      "operator": "",
      "railway": "station",
      "public_transport": "station",
      "station": ""
    },
    {
      "osm_id": 999013479,
      "lat": 13.7430181,
      "lon": 100.5997442,
      "name": "รามคำแหง",
      "name_en": "Ramkhamhaeng",
      "name_th": "รามคำแหง",
      "ref": "A5",
      "network": "ARL",
      "line": "",
      "operator": "",
      "railway": "stop",
      "public_transport": "stop_position",
      "station": ""
    },
    {
      "osm_id": 999013485,
      "lat": 13.7276453,
      "lon": 100.7478331,
      "name": "ลาดกระบัง",
      "name_en": "Lat Krabang",
      "name_th": "ลาดกระบัง",
      "ref": "A2",
      "network": "ARL",
      "line": "",
      "operator": "",
      "railway": "stop",
      "public_transport": "stop_position",
      "station": ""
    },
    {
      "osm_id": 999013489,
      "lat": 13.7328605,
      "lon": 100.6908083,
      "name": "บ้านทับช้าง",
      "name_en": "Ban Thap Chang",
      "name_th": "บ้านทับช้าง",
      "ref": "A3",
      "network": "ARL",
      "line": "",
      "operator": "",
      "railway": "stop",
      "public_transport": "stop_position",
      "station": ""
    },
    {
      "osm_id": 1103023738,
      "lat": 13.5869538,
      "lon": 100.3401052,
      "name": "คอกควาย",
      "name_en": "Khok Khwai",
      "name_th": "คอกควาย",
      "ref": "วา.",
      "network": "",
      "line": "",
      "operator": "การรถไฟแห่งประเทศไทย",
      "railway": "halt",
      "public_transport": "station",
      "station": ""
    },
    {
      "osm_id": 1113055052,
      "lat": 13.7130228,
      "lon": 100.4689032,
      "name": "วุฒากาศ",
      "name_en": "Wutthakat",
      "name_th": "วุฒากาศ",
      "ref": "S11",
      "network": "",
      "line": "",
      "operator": "กรุงเทพธนาคม",
      "railway": "station",
      "public_transport": "station",
      "station": "subway"
    },
    {
      "osm_id": 1183545716,
      "lat": 13.6665099,
      "lon": 100.428825,
      "name": "บางบอน",
      "name_en": "Bang Bon",
      "name_th": "บางบอน",
      "ref": "าา.",
      "network": "",
      "line": "",
      "operator": "การรถไฟแห่งประเทศไทย",
      "railway": "halt",
      "public_transport": "station",
      "station": ""
    },
    {
      "osm_id": 1183545761,
      "lat": 13.6391391,
      "lon": 100.3982295,
      "name": "รางโพธิ์",
      "name_en": "Rang Pho",
      "name_th": "รางโพธิ์",
      "ref": "รโ.",
      "network": "การรถไฟแห่งประเทศไทย",
      "line": "",
      "operator": "การรถไฟแห่งประเทศไทย",
      "railway": "station",
      "public_transport": "station",
      "station": ""
    },
    {
      "osm_id": 1183545948,
      "lat": 13.6051185,
      "lon": 100.3602696,
      "name": "บางน้ำจืด",
      "name_en": "Bang Nam Chuet",
      "name_th": "บางน้ำจืด",
      "ref": "นจ.",
      "network": "",
      "line": "",
      "operator": "การรถไฟแห่งประเทศไทย",
      "railway": "halt",
      "public_transport": "station",
      "station": ""
    },
    {
      "osm_id": 1183546364,
      "lat": 13.6525975,
      "lon": 100.4132302,
      "name": "การเคหะ",
      "name_en": "Kan Kheha",
      "name_th": "การเคหะ",
      "ref": "เค.",
      "network": "",
      "line": "",
      "operator": "การรถไฟแห่งประเทศไทย",
      "railway": "halt",
      "public_transport": "station",
      "station": ""
    },
    {
      "osm_id": 1183593073,
      "lat": 13.6126424,
      "lon": 100.3687241,
      "name": "ทุ่งสีทอง",
      "name_en": "Thung Si Thong",
      "name_th": "ทุ่งสีทอง",
      "ref": "ที.",
      "network": "",
      "line": "",
      "operator": "การรถไฟแห่งประเทศไทย",
      "railway": "halt",
      "public_transport": "station",
      "station": ""
    },
    {
      "osm_id": 1183593081,
      "lat": 13.6302658,
      "lon": 100.3883655,
      "name": "สามแยก",
      "name_en": "Sam Yaek",
      "name_th": "สามแยก",
      "ref": "แย.",
      "network": "",
      "line": "",
      "operator": "การรถไฟแห่งประเทศไทย",
      "railway": "halt",
      "public_transport": "station",
      "station": ""
    },
    {
      "osm_id": 1285516977,
      "lat": 13.7938228,
      "lon": 100.5497114,
      "name": "สะพานควาย",
      "name_en": "Saphan Khwai",
      "name_th": "สะพานควาย",
      "ref": "N7",
      "network": "",
      "line": "",
      "operator": "ระบบขนส่งมวลชนกรุงเทพ",
      "railway": "station",
      "public_transport": "station",
      "station": "subway"
    },
    {
      "osm_id": 1347844713,
      "lat": 13.7282484,
      "lon": 100.7829084,
      "name": "หัวตะเข้",
      "name_en": "Hua Takhe",
      "name_th": "หัวตะเข้",
      "ref": "",
      "network": "การรถไฟแห่งประเทศไทย",
      "line": "",
      "operator": "",
      "railway": "station",
      "public_transport": "station",
      "station": ""
    },
    {
      "osm_id": 1637548696,
      "lat": 13.7538606,
      "lon": 100.5473663,
      "name": "มักกะสัน",
      "name_en": "Makkasan",
      "name_th": "มักกะสัน",
      "ref": "",
      "network": "การรถไฟแห่งประเทศไทย",
      "line": "",
      "operator": "",
      "railway": "station",
      "public_transport": "station",
      "station": ""
    },
    {
      "osm_id": 1692209237,
      "lat": 13.7456236,
      "lon": 100.5342199,
      "name": "สยาม",
      "name_en": "Siam",
      "name_th": "สยาม",
      "ref": "CEN",
      "network": "BTS",
      "line": "",
      "operator": "ระบบขนส่งมวลชนกรุงเทพ",
      "railway": "station",
      "public_transport": "station",
      "station": "subway"
    },
    {
      "osm_id": 1692810681,
      "lat": 13.7139129,
      "lon": 100.5538607,
      "name": "แม่น้ำ",
      "name_en": "Mae Nam",
      "name_th": "แม่น้ำ",
      "ref": "",
      "network": "การรถไฟแห่งประเทศไทย",
      "line": "",
      "operator": "",
      "railway": "station",
      "public_transport": "station",
      "station": ""
    },
    {
      "osm_id": 1692912081,
      "lat": 13.7570106,
      "lon": 100.5331942,
      "name": "พญาไท",
      "name_en": "Phaya Thai",
      "name_th": "พญาไท",
      "ref": "ญท.",
      "network": "national",
      "line": "",
      "operator": "",
      "railway": "halt",
      "public_transport": "station",
      "station": ""
    },
    {
      "osm_id": 1724588735,
      "lat": 13.8041416,
      "lon": 100.5399615,
      "name": "ชุมทางบางซื่อ",
      "name_en": "Bang Sue Junction",
      "name_th": "ชุมทางบางซื่อ",
      "ref": "บซ.",
      "network": "",
      "line": "",
      "operator": "",
      "railway": "station",
      "public_transport": "station",
      "station": ""
    },
    {
      "osm_id": 1726307666,
      "lat": 13.7275084,
      "lon": 100.7485537,
      "name": "ลาดกระบัง",
      "name_en": "Lat Krabang",
      "name_th": "ลาดกระบัง",
      "ref": "ะบ.",
      "network": "การรถไฟแห่งประเทศไทย",
      "line": "",
      "operator": "",
      "railway": "station",
      "public_transport": "station",
      "station": ""
    },
    {
      "osm_id": 2013379450,
      "lat": 13.7281797,
      "lon": 100.7754678,
      "name": "พระจอมเกล้า",
      "name_en": "Phra Chom Klao",
      "name_th": "พระจอมเกล้า",
      "ref": "พม.",
      "network": "การรถไฟแห่งประเทศไทย",
      "line": "",
      "operator": "",
      "railway": "station",
      "public_transport": "station",
      "station": ""
    },
    {
      "osm_id": 2094758805,
      "lat": 13.7296466,
      "lon": 100.4740422,
      "name": "ท่าพระ",
      "name_en": "Tha Phra",
      "name_th": "ท่าพระ",
      "ref": "BL01",
      "network": "",
      "line": "",
      "operator": "ทางด่วนและรถไฟฟ้ากรุงเทพ",
      "railway": "station",
      "public_transport": "station",
      "station": "subway"
    },
    {
      "osm_id": 2094758837,
      "lat": 13.7633253,
      "lon": 100.4732959,
      "name": "บางขุนนนท์",
      "name_en": "Bang Khun Non",
      "name_th": "บางขุนนนท์",
      "ref": "BL04",
      "network": "",
      "line": "",
      "operator": "ทางด่วนและรถไฟฟ้ากรุงเทพ",
      "railway": "station",
      "public_transport": "station",
      "station": "subway"
    },
    {
      "osm_id": 2122824255,
      "lat": 13.8008757,
      "lon": 100.3707398,
      "name": "ศาลาธรรมสพน์",
      "name_en": "Sala Thammasop",
      "name_th": "",
      "ref": "ทพ.",
      "network": "",
      "line": "",
      "operator": "",
      "railway": "station",
      "public_transport": "station",
      "station": ""
    },
    {
      "osm_id": 3178943373,
      "lat": 13.7565202,
      "lon": 100.5356853,
      "name": "พญาไท",
      "name_en": "Phaya Thai",
      "name_th": "พญาไท",
      "ref": "A8",
      "network": "ARL",
      "line": "",
      "operator": "",
      "railway": "stop",
      "public_transport": "stop_position",
      "station": ""
    },
    {
      "osm_id": 3178943413,
      "lat": 13.7507485,
      "lon": 100.5621936,
      "name": "มักกะสัน",
      "name_en": "Makkasan",
      "name_th": "มักกะสัน",
      "ref": "A6",
      "network": "ARL",
      "line": "",
      "operator": "",
      "railway": "stop",
      "public_transport": "stop_position",
      "station": ""
    },
    {
      "osm_id": 3180277903,
      "lat": 13.6942971,
      "lon": 100.7513395,
      "name": "สุวรรณภูมิ",
      "name_en": "Suvarnabhumi",
      "name_th": "สุวรรณภูมิ",
      "ref": "A1",
      "network": "ARL",
      "line": "",
      "operator": "",
      "railway": "stop",
      "public_transport": "stop_position",
      "station": ""
    },
    {
      "osm_id": 3180278583,
      "lat": 13.7429728,
      "lon": 100.6006179,
      "name": "รามคำแหง",
      "name_en": "Ramkhamhaeng",
      "name_th": "รามคำแหง",
      "ref": "A5",
      "network": "ARL",
      "line": "",
      "operator": "",
      "railway": "stop",
      "public_transport": "stop_position",
      "station": ""
    },
    {
      "osm_id": 3180278585,
      "lat": 13.7380596,
      "lon": 100.6458783,
      "name": "หัวหมาก",
      "name_en": "Hua Mak",
      "name_th": "หัวหมาก",
      "ref": "A4",
      "network": "ARL",
      "line": "",
      "operator": "",
      "railway": "stop",
      "public_transport": "stop_position",
      "station": ""
    },
    {
      "osm_id": 3641278609,
      "lat": 13.7892723,
      "lon": 100.4400797,
      "name": "ชุมทางตลิ่งชัน",
      "name_en": "Taling Chan Junction",
      "name_th": "ชุมทางตลิ่งชัน",
      "ref": "ตช.;RW06",
      "network": "",
      "line": "",
      "operator": "",
      "railway": "station",
      "public_transport": "station",
      "station": ""
    },
    {
      "osm_id": 3801037850,
      "lat": 13.7401714,
      "lon": 100.4707092,
      "name": "จรัญฯ 13",
      "name_en": "Charan 13",
      "name_th": "จรัญฯ 13",
      "ref": "BL02",
      "network": "",
      "line": "",
      "operator": "ทางด่วนและรถไฟฟ้ากรุงเทพ",
      "railway": "station",
      "public_transport": "station",
      "station": "subway"
    },
    {
      "osm_id": 3801037852,
      "lat": 13.7924113,
      "lon": 100.5048882,
      "name": "บางพลัด",
      "name_en": "Bang Phlat",
      "name_th": "บางพลัด",
      "ref": "BL07",
      "network": "",
      "line": "",
      "operator": "",
      "railway": "station",
      "public_transport": "station",
      "station": "subway"
    },
    {
      "osm_id": 3801037853,
      "lat": 13.777382,
      "lon": 100.4852556,
      "name": "บางยี่ขัน",
      "name_en": "Bang Yi Khan",
      "name_th": "บางยี่ขัน",
      "ref": "BL05",
      "network": "",
      "line": "",
      "operator": "ทางด่วนและรถไฟฟ้ากรุงเทพ",
      "railway": "station",
      "public_transport": "station",
      "station": "subway"
    },
    {
      "osm_id": 3801037855,
      "lat": 13.7989803,
      "lon": 100.5097864,
      "name": "บางอ้อ",
      "name_en": "Bang O",
      "name_th": "บางอ้อ",
      "ref": "BL08",
      "network": "",
      "line": "",
      "operator": "ทางด่วนและรถไฟฟ้ากรุงเทพ",
      "railway": "station",
      "public_transport": "station",
      "station": "subway"
    },
    {
      "osm_id": 3801037856,
      "lat": 13.7119437,
      "lon": 100.4223368,
      "name": "บางแค",
      "name_en": "Bang Khae",
      "name_th": "บางแค",
      "ref": "BL37",
      "network": "",
      "line": "",
      "operator": "ทางด่วนและรถไฟฟ้ากรุงเทพ",
      "railway": "station",
      "public_transport": "station",
      "station": "subway"
    },
    {
      "osm_id": 3801040557,
      "lat": 13.8064027,
      "lon": 100.5210095,
      "name": "บางโพ",
      "name_en": "Bang Pho",
      "name_th": "บางโพ",
      "ref": "BL09",
      "network": "",
      "line": "",
      "operator": "ทางด่วนและรถไฟฟ้ากรุงเทพ",
      "railway": "station",
      "public_transport": "station",
      "station": "subway"
    },
    {
      "osm_id": 3801040558,
      "lat": 13.7246179,
      "lon": 100.4650788,
      "name": "บางไผ่",
      "name_en": "Bang Phai",
      "name_th": "บางไผ่",
      "ref": "BL33",
      "network": "",
      "line": "",
      "operator": "ทางด่วนและรถไฟฟ้ากรุงเทพ",
      "railway": "station",
      "public_transport": "station",
      "station": "subway"
    },
    {
      "osm_id": 3801040559,
      "lat": 13.7129105,
      "lon": 100.434326,
      "name": "ภาษีเจริญ",
      "name_en": "Phasi Charoen",
      "name_th": "ภาษีเจริญ",
      "ref": "BL36",
      "network": "",
      "line": "",
      "operator": "ทางด่วนและรถไฟฟ้ากรุงเทพ",
      "railway": "station",
      "public_transport": "station",
      "station": "subway"
    },
    {
      "osm_id": 3801040561,
      "lat": 13.7108774,
      "lon": 100.4094849,
      "name": "หลักสอง",
      "name_en": "Lak Song",
      "name_th": "หลักสอง",
      "ref": "BL38",
      "network": "",
      "line": "",
      "operator": "ทางด่วนและรถไฟฟ้ากรุงเทพ",
      "railway": "station",
      "public_transport": "station",
      "station": "subway"
    },
    {
      "osm_id": 3801040564,
      "lat": 13.7155591,
      "lon": 100.4454508,
      "name": "เพชรเกษม 48",
      "name_en": "Phetkasem 48",
      "name_th": "เพชรเกษม 48",
      "ref": "BL35",
      "network": "",
      "line": "",
      "operator": "ทางด่วนและรถไฟฟ้ากรุงเทพ",
      "railway": "station",
      "public_transport": "station",
      "station": "subway"
    },
    {
      "osm_id": 3805378261,
      "lat": 13.8752766,
      "lon": 100.5967316,
      "name": "วัดพระศรีมหาธาตุ",
      "name_en": "Wat Phra Sri Mahathat",
      "name_th": "",
      "ref": "N17",
      "network": "BTS",
      "line": "",
      "operator": "กรุงเทพธนาคม",
      "railway": "station",
      "public_transport": "station",
      "station": "subway"
    },
    {
      "osm_id": 4390539966,
      "lat": 13.7922078,
      "lon": 100.4775032,
      "name": "บางบำหรุ",
      "name_en": "Bang Bamru",
      "name_th": "บางบำหรุ",
      "ref": "บำ.;RW05",
      "network": "",
      "line": "",
      "operator": "",
      "railway": "station",
      "public_transport": "station",
      "station": ""
    },
    {
      "osm_id": 4659143529,
      "lat": 13.7064846,
      "lon": 100.4697741,
      "name": "คลองต้นไทร",
      "name_en": "Khlong Ton Sai",
      "name_th": "คลองต้นไทร",
      "ref": "ไซ.",
      "network": "",
      "line": "",
      "operator": "การรถไฟแห่งประเทศไทย",
      "railway": "halt",
      "public_transport": "station",
      "station": ""
    },
    {
      "osm_id": 4659155415,
      "lat": 13.7018278,
      "lon": 100.465136,
      "name": "จอมทอง",
      "name_en": "Chom Thong",
      "name_th": "จอมทอง",
      "ref": "ทจ.",
      "network": "",
      "line": "",
      "operator": "การรถไฟแห่งประเทศไทย",
      "railway": "halt",
      "public_transport": "station",
      "station": ""
    },
    {
      "osm_id": 5222817654,
      "lat": 13.8395295,
      "lon": 100.5149681,
      "name": "แยกติวานนท์",
      "name_en": "Yaek Tiwanon",
      "name_th": "แยกติวานนท์",
      "ref": "PP13",
      "network": "MRT",
      "line": "",
      "operator": "",
      "railway": "station",
      "public_transport": "station",
      "station": "subway"
    },
    {
      "osm_id": 5222817655,
      "lat": 13.8298636,
      "lon": 100.526496,
      "name": "วงศ์สว่าง",
      "name_en": "Wong Sawang",
      "name_th": "วงศ์สว่าง",
      "ref": "PP14",
      "network": "",
      "line": "",
      "operator": "",
      "railway": "station",
      "public_transport": "station",
      "station": "subway"
    },
    {
      "osm_id": 5222817656,
      "lat": 13.820081,
      "lon": 100.5324581,
      "name": "บางซ่อน",
      "name_en": "Bang Son",
      "name_th": "บางซ่อน",
      "ref": "PP15",
      "network": "",
      "line": "",
      "operator": "",
      "railway": "station",
      "public_transport": "station",
      "station": "subway"
    },
    {
      "osm_id": 5222843674,
      "lat": 13.8924338,
      "lon": 100.4082161,
      "name": "คลองบางไผ่",
      "name_en": "Khlong Bang Phai",
      "name_th": "คลองบางไผ่",
      "ref": "PP1",
      "network": "MRT",
      "line": "",
      "operator": "",
      "railway": "station",
      "public_transport": "station",
      "station": "subway"
    },
    {
      "osm_id": 5222843675,
      "lat": 13.8810117,
      "lon": 100.409287,
      "name": "ตลาดบางใหญ่",
      "name_en": "Talad Bang Yai",
      "name_th": "ตลาดบางใหญ่",
      "ref": "PP2",
      "network": "MRT",
      "line": "",
      "operator": "",
      "railway": "station",
      "public_transport": "station",
      "station": "subway"
    },
    {
      "osm_id": 5222843676,
      "lat": 13.8746749,
      "lon": 100.4193624,
      "name": "สามแยกบางใหญ่",
      "name_en": "Sam Yaek Bang Yai",
      "name_th": "สามแยกบางใหญ่",
      "ref": "PP3",
      "network": "MRT",
      "line": "",
      "operator": "",
      "railway": "station",
      "public_transport": "station",
      "station": "subway"
    },
    {
      "osm_id": 5222843677,
      "lat": 13.8757677,
      "lon": 100.4338011,
      "name": "บางพลู",
      "name_en": "Bang Phlu",
      "name_th": "บางพลู",
      "ref": "PP4",
      "network": "MRT",
      "line": "",
      "operator": "",
      "railway": "station",
      "public_transport": "station",
      "station": "subway"
    },
    {
      "osm_id": 5222843678,
      "lat": 13.876607,
      "lon": 100.4449359,
      "name": "บางรักใหญ่",
      "name_en": "Bang Rak Yai",
      "name_th": "บางรักใหญ่",
      "ref": "PP5",
      "network": "MRT",
      "line": "",
      "operator": "",
      "railway": "station",
      "public_transport": "station",
      "station": "subway"
    },
    {
      "osm_id": 5222843679,
      "lat": 13.8748084,
      "lon": 100.4559653,
      "name": "บางรักน้อยท่าอิฐ",
      "name_en": "Bang Rak Noi Tha It",
      "name_th": "บางรักน้อยท่าอิฐ",
      "ref": "PP6",
      "network": "MRT",
      "line": "",
      "operator": "",
      "railway": "station",
      "public_transport": "station",
      "station": "subway"
    },
    {
      "osm_id": 5222843680,
      "lat": 13.8705112,
      "lon": 100.4666922,
      "name": "ไทรม้า",
      "name_en": "Sai Ma",
      "name_th": "ไทรม้า",
      "ref": "PP7",
      "network": "MRT",
      "line": "",
      "operator": "",
      "railway": "station",
      "public_transport": "station",
      "station": "subway"
    },
    {
      "osm_id": 5222843681,
      "lat": 13.8702897,
      "lon": 100.4801284,
      "name": "สะพานพระนั่งเกล้า",
      "name_en": "Phra Nang Klao Bridge",
      "name_th": "สะพานพระนั่งเกล้า",
      "ref": "PP8",
      "network": "MRT",
      "line": "",
      "operator": "",
      "railway": "station",
      "public_transport": "station",
      "station": "subway"
    },
    {
      "osm_id": 5222843682,
      "lat": 13.865961,
      "lon": 100.4940765,
      "name": "แยกนนทบุรี 1",
      "name_en": "Yaek Nonthaburi 1",
      "name_th": "แยกนนทบุรี 1",
      "ref": "PP9",
      "network": "MRT",
      "line": "",
      "operator": "",
      "railway": "station",
      "public_transport": "station",
      "station": "subway"
    },
    {
      "osm_id": 5222843683,
      "lat": 13.8616527,
      "lon": 100.5046524,
      "name": "บางกระสอ",
      "name_en": "Bang Krasor",
      "name_th": "บางกระสอ",
      "ref": "PP10",
      "network": "MRT",
      "line": "",
      "operator": "",
      "railway": "station",
      "public_transport": "station",
      "station": "subway"
    },
    {
      "osm_id": 5222843684,
      "lat": 13.8601736,
      "lon": 100.5130671,
      "name": "ศูนย์ราชการนนทบุรี",
      "name_en": "Nonthaburi Civic Center",
      "name_th": "",
      "ref": "PP11",
      "network": "MRT",
      "line": "",
      "operator": "",
      "railway": "station",
      "public_transport": "station",
      "station": "subway"
    },
    {
      "osm_id": 5222843685,
      "lat": 13.8485312,
      "lon": 100.5147152,
      "name": "กระทรวงสาธารณสุข",
      "name_en": "Ministry of Public Health",
      "name_th": "กระทรวงสาธารณสุข",
      "ref": "PP12",
      "network": "MRT",
      "line": "",
      "operator": "",
      "railway": "station",
      "public_transport": "station",
      "station": "subway"
    },
    {
      "osm_id": 5388599065,
      "lat": 13.8026054,
      "lon": 100.5537959,
      "name": "หมอชิต",
      "name_en": "Mo Chit",
      "name_th": "หมอชิต",
      "ref": "N8",
      "network": "",
      "line": "",
      "operator": "ระบบขนส่งมวลชนกรุงเทพ",
      "railway": "station",
      "public_transport": "station",
      "station": "subway"
    },
    {
      "osm_id": 5388607091,
      "lat": 13.7797077,
      "lon": 100.5446201,
      "name": "อารีย์",
      "name_en": "Ari",
      "name_th": "อารีย์",
      "ref": "N5",
      "network": "",
      "line": "",
      "operator": "",
      "railway": "station",
      "public_transport": "station",
      "station": "subway"
    },
    {
      "osm_id": 5388611982,
      "lat": 13.7518605,
      "lon": 100.5315534,
      "name": "ราชเทวี",
      "name_en": "Ratchathewi",
      "name_th": "ราชเทวี",
      "ref": "N1",
      "network": "",
      "line": "",
      "operator": "",
      "railway": "station",
      "public_transport": "station",
      "station": "subway"
    },
    {
      "osm_id": 5388638318,
      "lat": 13.7726225,
      "lon": 100.5420729,
      "name": "สนามเป้า",
      "name_en": "Sanam Pao",
      "name_th": "สนามเป้า",
      "ref": "N4",
      "network": "",
      "line": "",
      "operator": "",
      "railway": "station",
      "public_transport": "station",
      "station": "subway"
    },
    {
      "osm_id": 5391599348,
      "lat": 13.6611846,
      "lon": 100.6018056,
      "name": "แบริ่ง",
      "name_en": "Bearing",
      "name_th": "แบริ่ง",
      "ref": "E14",
      "network": "",
      "line": "",
      "operator": "กรุงเทพธนาคม",
      "railway": "station",
      "public_transport": "station",
      "station": "subway"
    },
    {
      "osm_id": 5391610964,
      "lat": 13.668138,
      "lon": 100.6046633,
      "name": "บางนา",
      "name_en": "Bang Na",
      "name_th": "บางนา",
      "ref": "E13",
      "network": "",
      "line": "",
      "operator": "กรุงเทพธนาคม",
      "railway": "station",
      "public_transport": "station",
      "station": "subway"
    },
    {
      "osm_id": 5391610985,
      "lat": 13.7151693,
      "lon": 100.5912365,
      "name": "พระโขนง",
      "name_en": "Phra Khanong",
      "name_th": "พระโขนง",
      "ref": "E8",
      "network": "Sukhumvit Line",
      "line": "",
      "operator": "ระบบขนส่งมวลชนกรุงเทพ",
      "railway": "station",
      "public_transport": "station",
      "station": "subway"
    },
    {
      "osm_id": 5391611863,
      "lat": 13.7627589,
      "lon": 100.5370529,
      "name": "อนุสาวรีย์ชัยสมรภูมิ",
      "name_en": "Victory Monument",
      "name_th": "อนุสาวรีย์ชัยสมรภูมิ",
      "ref": "N3",
      "network": "",
      "line": "",
      "operator": "",
      "railway": "station",
      "public_transport": "station",
      "station": "subway"
    },
    {
      "osm_id": 5391613497,
      "lat": 13.6798746,
      "lon": 100.6094698,
      "name": "อุดมสุข",
      "name_en": "Udom Suk",
      "name_th": "อุดมสุข",
      "ref": "E12",
      "network": "",
      "line": "",
      "operator": "กรุงเทพธนาคม",
      "railway": "station",
      "public_transport": "station",
      "station": "subway"
    },
    {
      "osm_id": 5391616767,
      "lat": 13.689279,
      "lon": 100.6089963,
      "name": "ปุณณวิถี",
      "name_en": "Punnawithi",
      "name_th": "ปุณณวิถี",
      "ref": "E11",
      "network": "",
      "line": "",
      "operator": "กรุงเทพธนาคม",
      "railway": "station",
      "public_transport": "station",
      "station": "subway"
    },
    {
      "osm_id": 5391618414,
      "lat": 13.6967594,
      "lon": 100.6053402,
      "name": "บางจาก",
      "name_en": "Bang Chak",
      "name_th": "บางจาก",
      "ref": "E10",
      "network": "",
      "line": "",
      "operator": "",
      "railway": "station",
      "public_transport": "station",
      "station": "subway"
    },
    {
      "osm_id": 5391620400,
      "lat": 13.7056249,
      "lon": 100.601004,
      "name": "อ่อนนุช",
      "name_en": "On Nut",
      "name_th": "อ่อนนุช",
      "ref": "E9",
      "network": "",
      "line": "",
      "operator": "",
      "railway": "station",
      "public_transport": "station",
      "station": "subway"
    },
    {
      "osm_id": 5391625873,
      "lat": 13.7370432,
      "lon": 100.5603571,
      "name": "อโศก",
      "name_en": "Asok",
      "name_th": "อโศก",
      "ref": "E4",
      "network": "",
      "line": "",
      "operator": "ทางด่วนและรถไฟฟ้ากรุงเทพ",
      "railway": "station",
      "public_transport": "station",
      "station": "subway"
    },
    {
      "osm_id": 5391626092,
      "lat": 13.7242264,
      "lon": 100.5785054,
      "name": "ทองหล่อ",
      "name_en": "Thong Lo",
      "name_th": "ทองหล่อ",
      "ref": "E6",
      "network": "",
      "line": "",
      "operator": "",
      "railway": "station",
      "public_transport": "station",
      "station": "subway"
    },
    {
      "osm_id": 5391626093,
      "lat": 13.7304345,
      "lon": 100.5697129,
      "name": "พร้อมพงษ์",
      "name_en": "Phrom Phong",
      "name_th": "พร้อมพงษ์",
      "ref": "E5",
      "network": "",
      "line": "",
      "operator": "",
      "railway": "station",
      "public_transport": "station",
      "station": "subway"
    },
    {
      "osm_id": 5391628766,
      "lat": 13.7405358,
      "lon": 100.5554291,
      "name": "นานา",
      "name_en": "Nana",
      "name_th": "นานา",
      "ref": "E3",
      "network": "BTS",
      "line": "",
      "operator": "ระบบขนส่งมวลชนกรุงเทพ",
      "railway": "station",
      "public_transport": "station",
      "station": "subway"
    },
    {
      "osm_id": 5391631777,
      "lat": 13.7430684,
      "lon": 100.5489762,
      "name": "เพลินจิต",
      "name_en": "Phloen Chit",
      "name_th": "เพลินจิต",
      "ref": "E2",
      "network": "BTS",
      "line": "",
      "operator": "ระบบขนส่งมวลชนกรุงเทพ",
      "railway": "station",
      "public_transport": "station",
      "station": "subway"
    },
    {
      "osm_id": 5391636575,
      "lat": 13.7440974,
      "lon": 100.5430684,
      "name": "ชิดลม",
      "name_en": "Chit Lom",
      "name_th": "ชิดลม",
      "ref": "E1",
      "network": "BTS",
      "line": "",
      "operator": "ระบบขนส่งมวลชนกรุงเทพ",
      "railway": "station",
      "public_transport": "station",
      "station": "subway"
    },
    {
      "osm_id": 5391659126,
      "lat": 13.6464875,
      "lon": 100.5957857,
      "name": "สำโรง",
      "name_en": "Samrong",
      "name_th": "สำโรง",
      "ref": "E15",
      "network": "",
      "line": "",
      "operator": "กรุงเทพธนาคม",
      "railway": "station",
      "public_transport": "station",
      "station": "subway"
    },
    {
      "osm_id": 5391691787,
      "lat": 13.7373948,
      "lon": 100.5613401,
      "name": "สุขุมวิท",
      "name_en": "Sukhumvit",
      "name_th": "สุขุมวิท",
      "ref": "BL22",
      "network": "",
      "line": "",
      "operator": "",
      "railway": "station",
      "public_transport": "station",
      "station": "subway"
    },
    {
      "osm_id": 5405616025,
      "lat": 13.7195385,
      "lon": 100.585111,
      "name": "เอกมัย",
      "name_en": "Ekkamai",
      "name_th": "เอกมัย",
      "ref": "E7",
      "network": "",
      "line": "",
      "operator": "",
      "railway": "station",
      "public_transport": "station",
      "station": "subway"
    },
    {
      "osm_id": 5472737123,
      "lat": 13.744339,
      "lon": 100.5895169,
      "name": "คลองตัน",
      "name_en": "Khlong Tan",
      "name_th": "คลองตัน",
      "ref": "คต.",
      "network": "",
      "line": "",
      "operator": "การรถไฟแห่งประเทศไทย",
      "railway": "station",
      "public_transport": "station",
      "station": ""
    },
    {
      "osm_id": 5812248586,
      "lat": 13.7264621,
      "lon": 100.5090694,
      "name": "เจริญนคร",
      "name_en": "Charoen Nakhon",
      "name_th": "เจริญนคร",
      "ref": "G2",
      "network": "BTS",
      "line": "",
      "operator": "กรุงเทพธนาคม",
      "railway": "station",
      "public_transport": "station",
      "station": ""
    },
    {
      "osm_id": 5812248587,
      "lat": 13.7303066,
      "lon": 100.5077213,
      "name": "คลองสาน",
      "name_en": "Khlong San",
      "name_th": "คลองสาน",
      "ref": "G3",
      "network": "BTS",
      "line": "",
      "operator": "กรุงเทพธนาคม",
      "railway": "station",
      "public_transport": "station",
      "station": ""
    },
    {
      "osm_id": 6024782068,
      "lat": 13.9905416,
      "lon": 100.6021544,
      "name": "รังสิต",
      "name_en": "Rangsit",
      "name_th": "รังสิต",
      "ref": "รต.;RN10",
      "network": "รถไฟฟ้าชานเมือง สายสีแดง",
      "line": "",
      "operator": "การรถไฟแห่งประเทศไทย",
      "railway": "station",
      "public_transport": "station",
      "station": ""
    },
    {
      "osm_id": 6124793513,
      "lat": 13.6372768,
      "lon": 100.5920064,
      "name": "ปู่เจ้า",
      "name_en": "Pu Chao",
      "name_th": "ปู่เจ้า",
      "ref": "E16",
      "network": "",
      "line": "",
      "operator": "กรุงเทพธนาคม",
      "railway": "station",
      "public_transport": "station",
      "station": "subway"
    },
    {
      "osm_id": 6124793514,
      "lat": 13.6215944,
      "lon": 100.5901599,
      "name": "ช้างเอราวัณ",
      "name_en": "Chang Erawan",
      "name_th": "ช้างเอราวัณ",
      "ref": "E17",
      "network": "",
      "line": "",
      "operator": "กรุงเทพธนาคม",
      "railway": "station",
      "public_transport": "station",
      "station": "subway"
    },
    {
      "osm_id": 6124793515,
      "lat": 13.6084089,
      "lon": 100.5949057,
      "name": "โรงเรียนนายเรือ",
      "name_en": "Royal Thai Naval Academy",
      "name_th": "โรงเรียนนายเรือ",
      "ref": "E18",
      "network": "",
      "line": "",
      "operator": "",
      "railway": "station",
      "public_transport": "station",
      "station": "subway"
    },
    {
      "osm_id": 6124793516,
      "lat": 13.6021243,
      "lon": 100.5970924,
      "name": "ปากน้ำ",
      "name_en": "Pak Nam",
      "name_th": "ปากน้ำ",
      "ref": "E19",
      "network": "",
      "line": "",
      "operator": "",
      "railway": "station",
      "public_transport": "station",
      "station": "subway"
    },
    {
      "osm_id": 6124793517,
      "lat": 13.5919965,
      "lon": 100.6090352,
      "name": "ศรีนครินทร์",
      "name_en": "Srinagarindra",
      "name_th": "ศรีนครินทร์",
      "ref": "E20",
      "network": "",
      "line": "",
      "operator": "",
      "railway": "station",
      "public_transport": "station",
      "station": "subway"
    },
    {
      "osm_id": 6124793521,
      "lat": 13.5841917,
      "lon": 100.607905,
      "name": "แพรกษา",
      "name_en": "Phraek Sa",
      "name_th": "แพรกษา",
      "ref": "E21",
      "network": "",
      "line": "",
      "operator": "",
      "railway": "station",
      "public_transport": "station",
      "station": "subway"
    },
    {
      "osm_id": 6124793522,
      "lat": 13.5777755,
      "lon": 100.6054607,
      "name": "สายลวด",
      "name_en": "Sai Luat",
      "name_th": "สายลวด",
      "ref": "E22",
      "network": "",
      "line": "",
      "operator": "",
      "railway": "station",
      "public_transport": "station",
      "station": "subway"
    },
    {
      "osm_id": 6124793523,
      "lat": 13.5676866,
      "lon": 100.6076939,
      "name": "เคหะฯ",
      "name_en": "Kheha",
      "name_th": "เคหะฯ",
      "ref": "E23",
      "network": "",
      "line": "",
      "operator": "",
      "railway": "station",
      "public_transport": "station",
      "station": "subway"
    },
    {
      "osm_id": 6228668385,
      "lat": 13.7200739,
      "lon": 100.8630607,
      "name": "คลองหลวงแพ่ง",
      "name_en": "Khlong Luang Phaeng",
      "name_th": "คลองหลวงแพ่ง",
      "ref": "คพ.",
      "network": "การรถไฟแห่งประเทศไทย",
      "line": "",
      "operator": "",
      "railway": "station",
      "public_transport": "station",
      "station": ""
    },
    {
      "osm_id": 6228668485,
      "lat": 13.715861,
      "lon": 100.8969339,
      "name": "คลองอุดมชลจร",
      "name_en": "Khlong Udom Chonlajorn",
      "name_th": "คลองอุดมชลจร",
      "ref": "ดจ.",
      "network": "",
      "line": "",
      "operator": "",
      "railway": "halt",
      "public_transport": "station",
      "station": ""
    },
    {
      "osm_id": 6563228219,
      "lat": 13.7838726,
      "lon": 100.4933267,
      "name": "สิรินธร",
      "name_en": "Sirindhorn",
      "name_th": "สิรินธร",
      "ref": "BL06",
      "network": "",
      "line": "",
      "operator": "ทางด่วนและรถไฟฟ้ากรุงเทพ",
      "railway": "station",
      "public_transport": "station",
      "station": "subway"
    },
    {
      "osm_id": 6681609012,
      "lat": 13.9250126,
      "lon": 100.6258374,
      "name": "แยก คปอ.",
      "name_en": "Yaek Kor Por Aor",
      "name_th": "แยก คปอ.",
      "ref": "N23",
      "network": "",
      "line": "",
      "operator": "กรุงเทพธนาคม",
      "railway": "station",
      "public_transport": "station",
      "station": "subway"
    },
    {
      "osm_id": 6681609016,
      "lat": 13.9179713,
      "lon": 100.621691,
      "name": "พิพิธภัณฑ์กองทัพอากาศ",
      "name_en": "Royal Thai Air Force Museum",
      "name_th": "พิพิธภัณฑ์กองทัพอากาศ",
      "ref": "N22",
      "network": "BTS",
      "line": "",
      "operator": "กรุงเทพธนาคม",
      "railway": "station",
      "public_transport": "station",
      "station": "subway"
    },
    {
      "osm_id": 6681609017,
      "lat": 13.910714,
      "lon": 100.6173961,
      "name": "โรงพยาบาลภูมิพลอดุลยเดช",
      "name_en": "Bhumibol Adulyadej Hospital",
      "name_th": "โรงพยาบาลภูมิพลอดุลยเดช",
      "ref": "N21",
      "network": "BTS",
      "line": "",
      "operator": "กรุงเทพธนาคม",
      "railway": "station",
      "public_transport": "station",
      "station": "subway"
    },
    {
      "osm_id": 6681609018,
      "lat": 13.8966129,
      "lon": 100.6090774,
      "name": "สะพานใหม่",
      "name_en": "Saphan Mai",
      "name_th": "สะพานใหม่",
      "ref": "N20",
      "network": "BTS",
      "line": "",
      "operator": "กรุงเทพธนาคม",
      "railway": "station",
      "public_transport": "station",
      "station": "subway"
    },
    {
      "osm_id": 6681609019,
      "lat": 13.888451,
      "lon": 100.6042685,
      "name": "สายหยุด",
      "name_en": "Sai Yud",
      "name_th": "สายหยุด",
      "ref": "N19",
      "network": "",
      "line": "",
      "operator": "กรุงเทพธนาคม",
      "railway": "station",
      "public_transport": "station",
      "station": "subway"
    },
    {
      "osm_id": 6681609020,
      "lat": 13.8824483,
      "lon": 100.6007312,
      "name": "พหลโยธิน 59",
      "name_en": "Phahonyothin 59",
      "name_th": "พหลโยธิน 59",
      "ref": "N18",
      "network": "BTS",
      "line": "",
      "operator": "กรุงเทพธนาคม",
      "railway": "station",
      "public_transport": "station",
      "station": "subway"
    },
    {
      "osm_id": 6681609024,
      "lat": 13.8675784,
      "lon": 100.5919727,
      "name": "กรมทหารราบที่ 11",
      "name_en": "11th Infantry Regiment",
      "name_th": "กรมทหารราบที่ 11",
      "ref": "N16",
      "network": "BTS",
      "line": "",
      "operator": "กรุงเทพธนาคม",
      "railway": "station",
      "public_transport": "station",
      "station": "subway"
    },
    {
      "osm_id": 6681609025,
      "lat": 13.856049,
      "lon": 100.5851786,
      "name": "บางบัว",
      "name_en": "Bang Bua",
      "name_th": "บางบัว",
      "ref": "N15",
      "network": "",
      "line": "",
      "operator": "กรุงเทพธนาคม",
      "railway": "station",
      "public_transport": "station",
      "station": "subway"
    },
    {
      "osm_id": 6681609026,
      "lat": 13.850326,
      "lon": 100.5818158,
      "name": "กรมป่าไม้",
      "name_en": "Royal Forest Department",
      "name_th": "กรมป่าไม้",
      "ref": "N14",
      "network": "BTS",
      "line": "",
      "operator": "กรุงเทพธนาคม",
      "railway": "station",
      "public_transport": "station",
      "station": "subway"
    },
    {
      "osm_id": 6681609027,
      "lat": 13.8423141,
      "lon": 100.577105,
      "name": "มหาวิทยาลัยเกษตรศาสตร์",
      "name_en": "Kasetsart University",
      "name_th": "",
      "ref": "N13",
      "network": "BTS",
      "line": "",
      "operator": "กรุงเทพธนาคม",
      "railway": "station",
      "public_transport": "station",
      "station": "subway"
    },
    {
      "osm_id": 6681609028,
      "lat": 13.8364057,
      "lon": 100.5736286,
      "name": "เสนานิคม",
      "name_en": "Sena Nikhom",
      "name_th": "เสนานิคม",
      "ref": "N12",
      "network": "",
      "line": "",
      "operator": "กรุงเทพธนาคม",
      "railway": "station",
      "public_transport": "station",
      "station": "subway"
    },
    {
      "osm_id": 6681609029,
      "lat": 13.8297477,
      "lon": 100.5697222,
      "name": "รัชโยธิน",
      "name_en": "Ratchayothin",
      "name_th": "รัชโยธิน",
      "ref": "N11",
      "network": "BTS",
      "line": "",
      "operator": "กรุงเทพธนาคม",
      "railway": "station",
      "public_transport": "station",
      "station": "subway"
    },
    {
      "osm_id": 6681609030,
      "lat": 13.8241206,
      "lon": 100.5664253,
      "name": "พหลโยธิน 24",
      "name_en": "Phahonyothin 24",
      "name_th": "พหลโยธิน 24",
      "ref": "N10",
      "network": "BTS",
      "line": "",
      "operator": "กรุงเทพธนาคม",
      "railway": "station",
      "public_transport": "station",
      "station": "subway"
    },
    {
      "osm_id": 6703045990,
      "lat": 13.786883,
      "lon": 100.6914557,
      "name": "น้อมเกล้า",
      "name_en": "Nom Klao",
      "name_th": "น้อมเกล้า",
      "ref": "",
      "network": "รถไฟฟ้ามหานคร สายสีส้ม",
      "line": "",
      "operator": "ทางด่วนและรถไฟฟ้ากรุงเทพ",
      "railway": "construction",
      "public_transport": "station",
      "station": "subway"
    },
    {
      "osm_id": 6703045993,
      "lat": 13.7973754,
      "lon": 100.7111008,
      "name": "มีนพัฒนา",
      "name_en": "Min Phatthana",
      "name_th": "มีนพัฒนา",
      "ref": "",
      "network": "",
      "line": "",
      "operator": "ทางด่วนและรถไฟฟ้ากรุงเทพ",
      "railway": "construction",
      "public_transport": "station",
      "station": "subway"
    },
    {
      "osm_id": 6711023184,
      "lat": 13.7509089,
      "lon": 100.5611427,
      "name": "มักกะสัน",
      "name_en": "Makkasan",
      "name_th": "มักกะสัน",
      "ref": "A6",
      "network": "ARL",
      "line": "",
      "operator": "",
      "railway": "station",
      "public_transport": "station",
      "station": ""
    },
    {
      "osm_id": 6711028526,
      "lat": 13.75671,
      "lon": 100.5349074,
      "name": "พญาไท",
      "name_en": "Phaya Thai",
      "name_th": "พญาไท",
      "ref": "A8",
      "network": "ARL",
      "line": "",
      "operator": "",
      "railway": "station",
      "public_transport": "station",
      "station": ""
    },
    {
      "osm_id": 6966466946,
      "lat": 13.8166807,
      "lon": 100.5620359,
      "name": "ห้าแยกลาดพร้าว",
      "name_en": "Ha Yaek Lat Phrao",
      "name_th": "",
      "ref": "N9",
      "network": "",
      "line": "",
      "operator": "กรุงเทพธนาคม",
      "railway": "station",
      "public_transport": "station",
      "station": "subway"
    },
    {
      "osm_id": 7096345624,
      "lat": 13.7558013,
      "lon": 100.4693198,
      "name": "ไฟฉาย",
      "name_en": "Fai Chai",
      "name_th": "ไฟฉาย",
      "ref": "BL03",
      "network": "MRT",
      "line": "",
      "operator": "ทางด่วนและรถไฟฟ้ากรุงเทพ",
      "railway": "station",
      "public_transport": "station",
      "station": "subway"
    },
    {
      "osm_id": 7156540353,
      "lat": 13.910445,
      "lon": 100.5442477,
      "name": "อิมแพ็ค เมืองทองธานี",
      "name_en": "Impact Muang Thong Thani",
      "name_th": "อิมแพ็ค เมืองทองธานี",
      "ref": "MT01",
      "network": "MRT",
      "line": "",
      "operator": "นอร์ทเทิร์นบางกอกโมโนเรล",
      "railway": "stop",
      "public_transport": "stop_position",
      "station": ""
    },
    {
      "osm_id": 7647114249,
      "lat": 13.889258,
      "lon": 100.5105633,
      "name": "สามัคคี",
      "name_en": "Samakkhi",
      "name_th": "สามัคคี",
      "ref": "PK04",
      "network": "MRT",
      "line": "",
      "operator": "นอร์ทเทิร์นบางกอกโมโนเรล",
      "railway": "stop",
      "public_transport": "stop_position",
      "station": ""
    },
    {
      "osm_id": 7647114250,
      "lat": 13.8741,
      "lon": 100.5163068,
      "name": "สนามบินน้ำ",
      "name_en": "Sanambin Nam",
      "name_th": "สนามบินน้ำ",
      "ref": "PK03",
      "network": "MRT",
      "line": "",
      "operator": "นอร์ทเทิร์นบางกอกโมโนเรล",
      "railway": "stop",
      "public_transport": "stop_position",
      "station": ""
    },
    {
      "osm_id": 7769630266,
      "lat": 13.7393113,
      "lon": 100.5166499,
      "name": "กรุงเทพ",
      "name_en": "Bangkok",
      "name_th": "กรุงเทพ",
      "ref": "กท.",
      "network": "การรถไฟแห่งประเทศไทย",
      "line": "",
      "operator": "การรถไฟแห่งประเทศไทย",
      "railway": "station",
      "public_transport": "station",
      "station": ""
    },
    {
      "osm_id": 7769630267,
      "lat": 13.7605974,
      "lon": 100.4787465,
      "name": "ธนบุรี",
      "name_en": "Thonburi",
      "name_th": "ธนบุรี",
      "ref": "ธบ.",
      "network": "",
      "line": "",
      "operator": "",
      "railway": "station",
      "public_transport": "station",
      "station": ""
    },
    {
      "osm_id": 7769639096,
      "lat": 13.72079,
      "lon": 100.4577913,
      "name": "บางหว้า",
      "name_en": "Bang Wa",
      "name_th": "บางหว้า",
      "ref": "S12",
      "network": "",
      "line": "",
      "operator": "กรุงเทพธนาคม",
      "railway": "station",
      "public_transport": "station",
      "station": "subway"
    },
    {
      "osm_id": 7769639097,
      "lat": 13.7202698,
      "lon": 100.4570233,
      "name": "บางหว้า",
      "name_en": "Bang Wa",
      "name_th": "บางหว้า",
      "ref": "BL34",
      "network": "",
      "line": "",
      "operator": "ทางด่วนและรถไฟฟ้ากรุงเทพ",
      "railway": "station",
      "public_transport": "station",
      "station": "subway"
    },
    {
      "osm_id": 7769639098,
      "lat": 13.8061627,
      "lon": 100.5307752,
      "name": "เตาปูน",
      "name_en": "Tao Poon",
      "name_th": "เตาปูน",
      "ref": "BL10;PP16",
      "network": "MRT",
      "line": "",
      "operator": "ทางด่วนและรถไฟฟ้ากรุงเทพ",
      "railway": "station",
      "public_transport": "station",
      "station": "subway"
    },
    {
      "osm_id": 7769639099,
      "lat": 13.6494089,
      "lon": 100.4097754,
      "name": "รางสะแก",
      "name_en": "Rang Sakae",
      "name_th": "รางสะแก",
      "ref": "รแ.",
      "network": "",
      "line": "",
      "operator": "การรถไฟแห่งประเทศไทย",
      "railway": "halt",
      "public_transport": "station",
      "station": ""
    },
    {
      "osm_id": 7781133227,
      "lat": 13.7211681,
      "lon": 100.5037139,
      "name": "กรุงธนบุรี",
      "name_en": "Krung Thon Buri",
      "name_th": "กรุงธนบุรี",
      "ref": "1",
      "network": "BTS",
      "line": "",
      "operator": "กรุงเทพธนาคม",
      "railway": "stop",
      "public_transport": "stop_position",
      "station": "monorail"
    },
    {
      "osm_id": 7781158247,
      "lat": 13.720816,
      "lon": 100.5266863,
      "name": "เซนต์หลุยส์",
      "name_en": "Saint Louis",
      "name_th": "เซนต์หลุยส์",
      "ref": "S4",
      "network": "BTS",
      "line": "",
      "operator": "ระบบขนส่งมวลชนกรุงเทพ",
      "railway": "station",
      "public_transport": "station",
      "station": "subway"
    },
    {
      "osm_id": 7781303392,
      "lat": 13.6450158,
      "lon": 100.5966038,
      "name": "สำโรง",
      "name_en": "Samrong",
      "name_th": "สำโรง",
      "ref": "YL23",
      "network": "",
      "line": "",
      "operator": "อีสเทิร์นบางกอกโมโนเรล",
      "railway": "station",
      "public_transport": "station",
      "station": "monorail"
    },
    {
      "osm_id": 7787093465,
      "lat": 13.7500289,
      "lon": 100.5641274,
      "name": "อโศก",
      "name_en": "Asok",
      "name_th": "อโศก",
      "ref": "อโ.",
      "network": "",
      "line": "",
      "operator": "",
      "railway": "halt",
      "public_transport": "station",
      "station": ""
    },
    {
      "osm_id": 7787093467,
      "lat": 13.7585749,
      "lon": 100.5263062,
      "name": "อุรุพงษ์",
      "name_en": "Uruphong",
      "name_th": "อุรุพงษ์",
      "ref": "รุ.",
      "network": "",
      "line": "",
      "operator": "",
      "railway": "halt",
      "public_transport": "station",
      "station": ""
    },
    {
      "osm_id": 7787093469,
      "lat": 13.7631788,
      "lon": 100.4725817,
      "name": "จรัลสนิทวงศ์",
      "name_en": "Charan Sanitwong",
      "name_th": "จรัลสนิทวงศ์",
      "ref": "รว.",
      "network": "",
      "line": "",
      "operator": "การรถไฟแห่งประเทศไทย",
      "railway": "halt",
      "public_transport": "station",
      "station": ""
    },
    {
      "osm_id": 7787093470,
      "lat": 13.7784563,
      "lon": 100.4535109,
      "name": "บางระมาด",
      "name_en": "Bang Ramat",
      "name_th": "บางระมาด",
      "ref": "รม.",
      "network": "",
      "line": "",
      "operator": "",
      "railway": "halt",
      "public_transport": "station",
      "station": ""
    },
    {
      "osm_id": 7787093471,
      "lat": 13.8266181,
      "lon": 100.5494741,
      "name": "จตุจักร",
      "name_en": "Chatuchak",
      "name_th": "จตุจักร",
      "ref": "RN02",
      "network": "รถไฟฟ้าชานเมือง สายสีแดง",
      "line": "",
      "operator": "การรถไฟแห่งประเทศไทย",
      "railway": "station",
      "public_transport": "station",
      "station": ""
    },
    {
      "osm_id": 7787093472,
      "lat": 13.8415934,
      "lon": 100.5574987,
      "name": "วัดเสมียนนารี",
      "name_en": "Wat Samian Nari",
      "name_th": "วัดเสมียนนารี",
      "ref": "RN03",
      "network": "รถไฟฟ้าชานเมือง สายสีแดง",
      "line": "",
      "operator": "การรถไฟแห่งประเทศไทย",
      "railway": "station",
      "public_transport": "station",
      "station": ""
    },
    {
      "osm_id": 7787093474,
      "lat": 13.8493659,
      "lon": 100.5616724,
      "name": "บางเขน",
      "name_en": "Bang Khen",
      "name_th": "บางเขน",
      "ref": "RN04",
      "network": "รถไฟฟ้าชานเมือง สายสีแดง",
      "line": "",
      "operator": "การรถไฟแห่งประเทศไทย",
      "railway": "station",
      "public_transport": "station",
      "station": ""
    },
    {
      "osm_id": 7787093475,
      "lat": 13.8602057,
      "lon": 100.5675309,
      "name": "ทุ่งสองห้อง",
      "name_en": "Thung Song Hong",
      "name_th": "ทุ่งสองห้อง",
      "ref": "RN05",
      "network": "รถไฟฟ้าชานเมือง สายสีแดง",
      "line": "",
      "operator": "การรถไฟแห่งประเทศไทย",
      "railway": "station",
      "public_transport": "station",
      "station": ""
    },
    {
      "osm_id": 7787093476,
      "lat": 13.8863144,
      "lon": 100.581936,
      "name": "หลักสี่",
      "name_en": "Lak Si",
      "name_th": "หลักสี่",
      "ref": "RN06",
      "network": "รถไฟฟ้าชานเมือง สายสีแดง",
      "line": "",
      "operator": "การรถไฟแห่งประเทศไทย",
      "railway": "station",
      "public_transport": "station",
      "station": ""
    },
    {
      "osm_id": 7787093477,
      "lat": 13.898657,
      "lon": 100.5888732,
      "name": "การเคหะ",
      "name_en": "Kan Kheha",
      "name_th": "การเคหะ",
      "ref": "RN07",
      "network": "รถไฟฟ้าชานเมือง สายสีแดง",
      "line": "",
      "operator": "การรถไฟแห่งประเทศไทย",
      "railway": "station",
      "public_transport": "station",
      "station": ""
    },
    {
      "osm_id": 7787093478,
      "lat": 13.914688,
      "lon": 100.5978685,
      "name": "ดอนเมือง",
      "name_en": "Don Muang",
      "name_th": "ดอนเมือง",
      "ref": "RN08",
      "network": "รถไฟฟ้าชานเมือง สายสีแดง;การรถไฟแห่งประเทศไทย",
      "line": "",
      "operator": "การรถไฟแห่งประเทศไทย",
      "railway": "station",
      "public_transport": "station",
      "station": ""
    },
    {
      "osm_id": 7787093479,
      "lat": 13.9657233,
      "lon": 100.6053753,
      "name": "หลักหก (ม.รังสิต)",
      "name_en": "Lak Hok (Rangsit U.)",
      "name_th": "",
      "ref": "RN09",
      "network": "รถไฟฟ้าชานเมือง สายสีแดง",
      "line": "",
      "operator": "การรถไฟแห่งประเทศไทย",
      "railway": "station",
      "public_transport": "station",
      "station": ""
    },
    {
      "osm_id": 7892607486,
      "lat": 13.7991608,
      "lon": 100.4205975,
      "name": "บ้านฉิมพลี",
      "name_en": "Ban Chimphli",
      "name_th": "",
      "ref": "ฉพ.",
      "network": "",
      "line": "",
      "operator": "",
      "railway": "halt",
      "public_transport": "station",
      "station": ""
    },
    {
      "osm_id": 7892607487,
      "lat": 13.8000507,
      "lon": 100.3950237,
      "name": "พุทธมณฑลสาย 2",
      "name_en": "Phutthamonthon Sai 2",
      "name_th": "",
      "ref": "ทล.",
      "network": "",
      "line": "",
      "operator": "",
      "railway": "halt",
      "public_transport": "station",
      "station": ""
    },
    {
      "osm_id": 7947495107,
      "lat": 13.8035436,
      "lon": 100.7234827,
      "name": "เคหะรามคำแหง",
      "name_en": "Keha Ramkhamhaeng",
      "name_th": "เคหะรามคำแหง",
      "ref": "OR27",
      "network": "",
      "line": "",
      "operator": "",
      "railway": "construction",
      "public_transport": "station",
      "station": "subway"
    },
    {
      "osm_id": 8067064024,
      "lat": 13.9183794,
      "lon": 100.5456518,
      "name": "ทะเลสาบเมืองทองธานี",
      "name_en": "Lake Muang Thong Thani",
      "name_th": "ทะเลสาบเมืองทองธานี",
      "ref": "MT02",
      "network": "MRT",
      "line": "",
      "operator": "นอร์ทเทิร์นบางกอกโมโนเรล",
      "railway": "stop",
      "public_transport": "stop_position",
      "station": ""
    },
    {
      "osm_id": 8093957526,
      "lat": 13.7125407,
      "lon": 100.4726397,
      "name": "วุฒากาศ",
      "name_en": "Wutthakat",
      "name_th": "วุฒากาศ",
      "ref": "",
      "network": "",
      "line": "",
      "operator": "การรถไฟแห่งประเทศไทย",
      "railway": "halt",
      "public_transport": "station",
      "station": ""
    },
    {
      "osm_id": 8214007176,
      "lat": 13.9323658,
      "lon": 100.6465227,
      "name": "คูคต",
      "name_en": "Khu Khot",
      "name_th": "คูคต",
      "ref": "N24",
      "network": "",
      "line": "",
      "operator": "กรุงเทพธนาคม",
      "railway": "station",
      "public_transport": "station",
      "station": "subway"
    },
    {
      "osm_id": 8717933838,
      "lat": 13.8069826,
      "lon": 100.5747847,
      "name": "ลาดพร้าว",
      "name_en": "Lat Phrao",
      "name_th": "ลาดพร้าว",
      "ref": "",
      "network": "",
      "line": "",
      "operator": "อีสเทิร์นบางกอกโมโนเรล",
      "railway": "station",
      "public_transport": "station",
      "station": "monorail"
    },
    {
      "osm_id": 8730762307,
      "lat": 13.8132889,
      "lon": 100.7390249,
      "name": "แยกร่มเกล้า",
      "name_en": "Yaek Rom Klao",
      "name_th": "แยกร่มเกล้า",
      "ref": "",
      "network": "",
      "line": "",
      "operator": "ทางด่วนและรถไฟฟ้ากรุงเทพ",
      "railway": "construction",
      "public_transport": "station",
      "station": "subway"
    },
    {
      "osm_id": 8730762313,
      "lat": 13.810032,
      "lon": 100.7330431,
      "name": "มีนบุรี",
      "name_en": "Min Buri",
      "name_th": "มีนบุรี",
      "ref": "",
      "network": "",
      "line": "",
      "operator": "ทางด่วนและรถไฟฟ้ากรุงเทพ",
      "railway": "construction",
      "public_transport": "station",
      "station": "subway"
    },
    {
      "osm_id": 8730802232,
      "lat": 13.8124926,
      "lon": 100.7258333,
      "name": "ตลาดมีนบุรี",
      "name_en": "Min Buri Market",
      "name_th": "ตลาดมีนบุรี",
      "ref": "PK29",
      "network": "MRT",
      "line": "",
      "operator": "นอร์ทเทิร์นบางกอกโมโนเรล",
      "railway": "stop",
      "public_transport": "stop_position",
      "station": ""
    },
    {
      "osm_id": 8730802242,
      "lat": 13.8127016,
      "lon": 100.7029282,
      "name": "บางชัน",
      "name_en": "Bang Chan",
      "name_th": "บางชัน",
      "ref": "PK27",
      "network": "MRT",
      "line": "",
      "operator": "นอร์ทเทิร์นบางกอกโมโนเรล",
      "railway": "stop",
      "public_transport": "stop_position",
      "station": ""
    },
    {
      "osm_id": 8730802246,
      "lat": 13.8165197,
      "lon": 100.685641,
      "name": "นพรัตน์",
      "name_en": "Nopparat",
      "name_th": "นพรัตน์",
      "ref": "PK26",
      "network": "MRT",
      "line": "",
      "operator": "นอร์ทเทิร์นบางกอกโมโนเรล",
      "railway": "stop",
      "public_transport": "stop_position",
      "station": ""
    },
    {
      "osm_id": 8986366369,
      "lat": 13.8040313,
      "lon": 100.5417111,
      "name": "กรุงเทพอภิวัฒน์",
      "name_en": "Krung Thep Aphiwat",
      "name_th": "กรุงเทพอภิวัฒน์",
      "ref": "กภ.",
      "network": "การรถไฟแห่งประเทศไทย",
      "line": "",
      "operator": "การรถไฟแห่งประเทศไทย",
      "railway": "station",
      "public_transport": "station",
      "station": ""
    },
    {
      "osm_id": 8990382534,
      "lat": 13.8221332,
      "lon": 100.534213,
      "name": "บางซ่อน",
      "name_en": "Bang Son",
      "name_th": "บางซ่อน",
      "ref": "ซอ;RW02",
      "network": "",
      "line": "",
      "operator": "",
      "railway": "station",
      "public_transport": "station",
      "station": ""
    },
    {
      "osm_id": 9697341535,
      "lat": 13.8244404,
      "lon": 100.6771946,
      "name": "วงแหวนรามอินทรา",
      "name_en": "Outer Ring Road-Ram Inthra",
      "name_th": "วงแหวนรามอินทรา",
      "ref": "PK25",
      "network": "MRT",
      "line": "",
      "operator": "นอร์ทเทิร์นบางกอกโมโนเรล",
      "railway": "stop",
      "public_transport": "stop_position",
      "station": ""
    },
    {
      "osm_id": 9697341538,
      "lat": 13.8337657,
      "lon": 100.6675628,
      "name": "รามอินทรา กม.9",
      "name_en": "Ram Inthra Kor Mor 9",
      "name_th": "รามอินทรา กม.9",
      "ref": "PK24",
      "network": "MRT",
      "line": "",
      "operator": "นอร์ทเทิร์นบางกอกโมโนเรล",
      "railway": "stop",
      "public_transport": "stop_position",
      "station": ""
    },
    {
      "osm_id": 9697484713,
      "lat": 13.7782911,
      "lon": 100.6758788,
      "name": "สัมมากร",
      "name_en": "Sammakorn",
      "name_th": "สัมมากร",
      "ref": "",
      "network": "",
      "line": "",
      "operator": "ทางด่วนและรถไฟฟ้ากรุงเทพ",
      "railway": "construction",
      "public_transport": "station",
      "station": "subway"
    },
    {
      "osm_id": 9733987626,
      "lat": 13.8743502,
      "lon": 100.5970783,
      "name": "วัดพระศรีมหาธาตุ",
      "name_en": "Wat Phra Sri Mahathat",
      "name_th": "วัดพระศรีมหาธาตุ",
      "ref": "PK16",
      "network": "MRT",
      "line": "",
      "operator": "นอร์ทเทิร์นบางกอกโมโนเรล",
      "railway": "stop",
      "public_transport": "stop_position",
      "station": ""
    },
    {
      "osm_id": 9733987641,
      "lat": 13.8799282,
      "lon": 100.5892826,
      "name": "ราชภัฏพระนคร",
      "name_en": "Rajabhat Phranakhon",
      "name_th": "ราชภัฏพระนคร",
      "ref": "PK15",
      "network": "MRT",
      "line": "",
      "operator": "นอร์ทเทิร์นบางกอกโมโนเรล",
      "railway": "stop",
      "public_transport": "stop_position",
      "station": ""
    },
    {
      "osm_id": 9734008618,
      "lat": 13.6367271,
      "lon": 100.6098956,
      "name": "ทิพวัล",
      "name_en": "Thipphawan",
      "name_th": "ทิพวัล",
      "ref": "",
      "network": "",
      "line": "",
      "operator": "อีสเทิร์นบางกอกโมโนเรล",
      "railway": "station",
      "public_transport": "station",
      "station": "monorail"
    },
    {
      "osm_id": 9734008619,
      "lat": 13.6298427,
      "lon": 100.622688,
      "name": "ศรีเทพา",
      "name_en": "Si Thepha",
      "name_th": "ศรีเทพา",
      "ref": "",
      "network": "",
      "line": "",
      "operator": "อีสเทิร์นบางกอกโมโนเรล",
      "railway": "station",
      "public_transport": "station",
      "station": "monorail"
    },
    {
      "osm_id": 9734277455,
      "lat": 13.8709386,
      "lon": 100.602604,
      "name": "รามอินทรา 3",
      "name_en": "Ram Inthra 3",
      "name_th": "รามอินทรา 3",
      "ref": "PK17",
      "network": "MRT",
      "line": "",
      "operator": "นอร์ทเทิร์นบางกอกโมโนเรล",
      "railway": "stop",
      "public_transport": "stop_position",
      "station": ""
    },
    {
      "osm_id": 9734277456,
      "lat": 13.8627778,
      "lon": 100.6178017,
      "name": "ลาดปลาเค้า",
      "name_en": "Lat Pla Khao",
      "name_th": "ลาดปลาเค้า",
      "ref": "PK18",
      "network": "MRT",
      "line": "",
      "operator": "นอร์ทเทิร์นบางกอกโมโนเรล",
      "railway": "stop",
      "public_transport": "stop_position",
      "station": ""
    },
    {
      "osm_id": 9734277457,
      "lat": 13.8582913,
      "lon": 100.6261191,
      "name": "รามอินทรา กม.4",
      "name_en": "Ram Inthra Kor Mor 4",
      "name_th": "รามอินทรา กม.4",
      "ref": "PK19",
      "network": "MRT",
      "line": "",
      "operator": "นอร์ทเทิร์นบางกอกโมโนเรล",
      "railway": "stop",
      "public_transport": "stop_position",
      "station": ""
    },
    {
      "osm_id": 9734277458,
      "lat": 13.8550006,
      "lon": 100.6322133,
      "name": "มัยลาภ",
      "name_en": "Maiyalap",
      "name_th": "มัยลาภ",
      "ref": "PK20",
      "network": "MRT",
      "line": "",
      "operator": "นอร์ทเทิร์นบางกอกโมโนเรล",
      "railway": "stop",
      "public_transport": "stop_position",
      "station": ""
    },
    {
      "osm_id": 9734277459,
      "lat": 13.8492496,
      "lon": 100.6428691,
      "name": "วัชรพล",
      "name_en": "Vacharaphol",
      "name_th": "วัชรพล",
      "ref": "PK21",
      "network": "MRT",
      "line": "",
      "operator": "นอร์ทเทิร์นบางกอกโมโนเรล",
      "railway": "stop",
      "public_transport": "stop_position",
      "station": ""
    },
    {
      "osm_id": 9734277460,
      "lat": 13.8452427,
      "lon": 100.6502343,
      "name": "รามอินทรา กม.6",
      "name_en": "Ram Inthra Kor Mor 6",
      "name_th": "รามอินทรา กม.6",
      "ref": "PK22",
      "network": "MRT",
      "line": "",
      "operator": "นอร์ทเทิร์นบางกอกโมโนเรล",
      "railway": "stop",
      "public_transport": "stop_position",
      "station": ""
    },
    {
      "osm_id": 9734277461,
      "lat": 13.8406089,
      "lon": 100.6587805,
      "name": "คู้บอน",
      "name_en": "Khu Bon",
      "name_th": "คู้บอน",
      "ref": "PK23",
      "network": "MRT",
      "line": "",
      "operator": "นอร์ทเทิร์นบางกอกโมโนเรล",
      "railway": "stop",
      "public_transport": "stop_position",
      "station": ""
    },
    {
      "osm_id": 9913078093,
      "lat": 13.8840495,
      "lon": 100.582681,
      "name": "หลักสี่",
      "name_en": "Lak Si",
      "name_th": "หลักสี่",
      "ref": "PK14",
      "network": "MRT",
      "line": "",
      "operator": "นอร์ทเทิร์นบางกอกโมโนเรล",
      "railway": "stop",
      "public_transport": "stop_position",
      "station": ""
    },
    {
      "osm_id": 10147872913,
      "lat": 13.8985366,
      "lon": 100.5070785,
      "name": "กรมชลประทาน",
      "name_en": "Royal Irrigation Department",
      "name_th": "กรมชลประทาน",
      "ref": "PK05",
      "network": "MRT",
      "line": "",
      "operator": "นอร์ทเทิร์นบางกอกโมโนเรล",
      "railway": "stop",
      "public_transport": "stop_position",
      "station": ""
    },
    {
      "osm_id": 10830450760,
      "lat": 13.6331023,
      "lon": 100.6301104,
      "name": "ศรีด่าน",
      "name_en": "Si Dan",
      "name_th": "ศรีด่าน",
      "ref": "YL20",
      "network": "",
      "line": "",
      "operator": "อีสเทิร์นบางกอกโมโนเรล",
      "railway": "station",
      "public_transport": "station",
      "station": "monorail"
    },
    {
      "osm_id": 10830450761,
      "lat": 13.6434906,
      "lon": 100.6362735,
      "name": "ศรีแบริ่ง",
      "name_en": "Si Bearing",
      "name_th": "ศรีแบริ่ง",
      "ref": "YL19",
      "network": "",
      "line": "",
      "operator": "อีสเทิร์นบางกอกโมโนเรล",
      "railway": "station",
      "public_transport": "station",
      "station": "monorail"
    },
    {
      "osm_id": 10830450762,
      "lat": 13.6549747,
      "lon": 100.6421608,
      "name": "ศรีลาซาล",
      "name_en": "Si La Salle",
      "name_th": "ศรีลาซาล",
      "ref": "YL18",
      "network": "",
      "line": "",
      "operator": "อีสเทิร์นบางกอกโมโนเรล",
      "railway": "station",
      "public_transport": "station",
      "station": "monorail"
    },
    {
      "osm_id": 10830450763,
      "lat": 13.6676858,
      "lon": 100.6450683,
      "name": "ศรีเอี่ยม",
      "name_en": "Si Iam",
      "name_th": "ศรีเอี่ยม",
      "ref": "YL17",
      "network": "",
      "line": "",
      "operator": "อีสเทิร์นบางกอกโมโนเรล",
      "railway": "station",
      "public_transport": "station",
      "station": "monorail"
    },
    {
      "osm_id": 10867419311,
      "lat": 13.9061476,
      "lon": 100.5054,
      "name": "แยกปากเกร็ด",
      "name_en": "Yaek Pak Kret",
      "name_th": "แยกปากเกร็ด",
      "ref": "PK06",
      "network": "MRT",
      "line": "",
      "operator": "นอร์ทเทิร์นบางกอกโมโนเรล",
      "railway": "stop",
      "public_transport": "stop_position",
      "station": ""
    },
    {
      "osm_id": 10867419312,
      "lat": 13.9041381,
      "lon": 100.5292669,
      "name": "แจ้งวัฒนะ-ปากเกร็ด 28",
      "name_en": "Chaeng Watthana-Pak Kret 28",
      "name_th": "แจ้งวัฒนะ-ปากเกร็ด 28",
      "ref": "PK08",
      "network": "MRT",
      "line": "",
      "operator": "นอร์ทเทิร์นบางกอกโมโนเรล",
      "railway": "stop",
      "public_transport": "stop_position",
      "station": ""
    },
    {
      "osm_id": 10867419318,
      "lat": 13.9064767,
      "lon": 100.5155582,
      "name": "เลี่ยงเมืองปากเกร็ด",
      "name_en": "Pak Kret Bypass",
      "name_th": "เลี่ยงเมืองปากเกร็ด",
      "ref": "PK07",
      "network": "MRT",
      "line": "",
      "operator": "นอร์ทเทิร์นบางกอกโมโนเรล",
      "railway": "stop",
      "public_transport": "stop_position",
      "station": ""
    },
    {
      "osm_id": 10867419319,
      "lat": 13.6766379,
      "lon": 100.6461707,
      "name": "ศรีอุดม",
      "name_en": "Si Udom",
      "name_th": "ศรีอุดม",
      "ref": "",
      "network": "",
      "line": "",
      "operator": "อีสเทิร์นบางกอกโมโนเรล",
      "railway": "station",
      "public_transport": "station",
      "station": "monorail"
    },
    {
      "osm_id": 10867419320,
      "lat": 13.6908637,
      "lon": 100.6471028,
      "name": "สวนหลวง ร.9",
      "name_en": "Suan Luang Rama IX",
      "name_th": "สวนหลวง ร.9",
      "ref": "YL15",
      "network": "",
      "line": "",
      "operator": "อีสเทิร์นบางกอกโมโนเรล",
      "railway": "station",
      "public_transport": "station",
      "station": "monorail"
    },
    {
      "osm_id": 10867419321,
      "lat": 13.7011219,
      "lon": 100.6464727,
      "name": "ศรีนครินทร์ 38",
      "name_en": "Srinagarindra 38",
      "name_th": "ศรีนครินทร์ 38",
      "ref": "YL14",
      "network": "",
      "line": "",
      "operator": "อีสเทิร์นบางกอกโมโนเรล",
      "railway": "station",
      "public_transport": "station",
      "station": "monorail"
    },
    {
      "osm_id": 10867419322,
      "lat": 13.7110971,
      "lon": 100.6441957,
      "name": "ศรีนุช",
      "name_en": "Si Nut",
      "name_th": "ศรีนุช",
      "ref": "YL13",
      "network": "",
      "line": "",
      "operator": "อีสเทิร์นบางกอกโมโนเรล",
      "railway": "station",
      "public_transport": "station",
      "station": "monorail"
    },
    {
      "osm_id": 10867419323,
      "lat": 13.7252705,
      "lon": 100.6417798,
      "name": "กลันตัน",
      "name_en": "Kalantan",
      "name_th": "กลันตัน",
      "ref": "YL12",
      "network": "",
      "line": "",
      "operator": "อีสเทิร์นบางกอกโมโนเรล",
      "railway": "station",
      "public_transport": "station",
      "station": "monorail"
    },
    {
      "osm_id": 10867419324,
      "lat": 13.7361482,
      "lon": 100.6411384,
      "name": "หัวหมาก",
      "name_en": "Hua Mak",
      "name_th": "หัวหมาก",
      "ref": "YL11",
      "network": "",
      "line": "",
      "operator": "อีสเทิร์นบางกอกโมโนเรล",
      "railway": "station",
      "public_transport": "station",
      "station": "monorail"
    },
    {
      "osm_id": 10867419325,
      "lat": 13.7504111,
      "lon": 100.6447881,
      "name": "ศรีกรีฑา",
      "name_en": "Si Kritha",
      "name_th": "ศรีกรีฑา",
      "ref": "YL10",
      "network": "",
      "line": "",
      "operator": "อีสเทิร์นบางกอกโมโนเรล",
      "railway": "station",
      "public_transport": "station",
      "station": "monorail"
    },
    {
      "osm_id": 10867419326,
      "lat": 13.7618191,
      "lon": 100.6455722,
      "name": "แยกลำสาลี",
      "name_en": "Yaek Lam Sali",
      "name_th": "แยกลำสาลี",
      "ref": "YL09",
      "network": "",
      "line": "",
      "operator": "อีสเทิร์นบางกอกโมโนเรล",
      "railway": "station",
      "public_transport": "station",
      "station": "monorail"
    },
    {
      "osm_id": 10867419327,
      "lat": 13.7690755,
      "lon": 100.6397685,
      "name": "บางกะปิ",
      "name_en": "Bang Kapi",
      "name_th": "บางกะปิ",
      "ref": "YL08",
      "network": "",
      "line": "",
      "operator": "อีสเทิร์นบางกอกโมโนเรล",
      "railway": "station",
      "public_transport": "station",
      "station": "monorail"
    },
    {
      "osm_id": 10867419328,
      "lat": 13.7746334,
      "lon": 100.6298421,
      "name": "ลาดพร้าว 101",
      "name_en": "Lat Phrao 101",
      "name_th": "ลาดพร้าว 101",
      "ref": "YL07",
      "network": "MRT",
      "line": "",
      "operator": "อีสเทิร์นบางกอกโมโนเรล",
      "railway": "station",
      "public_transport": "station",
      "station": "monorail"
    },
    {
      "osm_id": 10867419329,
      "lat": 13.7783677,
      "lon": 100.6231602,
      "name": "มหาดไทย",
      "name_en": "Mahatthai",
      "name_th": "มหาดไทย",
      "ref": "YL06",
      "network": "",
      "line": "",
      "operator": "อีสเทิร์นบางกอกโมโนเรล",
      "railway": "station",
      "public_transport": "station",
      "station": "monorail"
    },
    {
      "osm_id": 10867419330,
      "lat": 13.8001638,
      "lon": 100.5841952,
      "name": "ภาวนา",
      "name_en": "Phawana",
      "name_th": "ภาวนา",
      "ref": "YL02",
      "network": "",
      "line": "",
      "operator": "อีสเทิร์นบางกอกโมโนเรล",
      "railway": "station",
      "public_transport": "station",
      "station": "monorail"
    },
    {
      "osm_id": 10867419331,
      "lat": 13.7944253,
      "lon": 100.5944302,
      "name": "โชคชัย 4",
      "name_en": "Chok Chai 4",
      "name_th": "โชคชัย 4",
      "ref": "YL03",
      "network": "",
      "line": "",
      "operator": "อีสเทิร์นบางกอกโมโนเรล",
      "railway": "station",
      "public_transport": "station",
      "station": "monorail"
    },
    {
      "osm_id": 10867419332,
      "lat": 13.7870921,
      "lon": 100.6075731,
      "name": "ลาดพร้าว 71",
      "name_en": "Lat Phrao 71",
      "name_th": "ลาดพร้าว 71",
      "ref": "YL04",
      "network": "",
      "line": "",
      "operator": "อีสเทิร์นบางกอกโมโนเรล",
      "railway": "station",
      "public_transport": "station",
      "station": "monorail"
    },
    {
      "osm_id": 10867419333,
      "lat": 13.7837002,
      "lon": 100.6136576,
      "name": "ลาดพร้าว 83",
      "name_en": "Lat Phrao 83",
      "name_th": "ลาดพร้าว 83",
      "ref": "YL05",
      "network": "",
      "line": "",
      "operator": "อีสเทิร์นบางกอกโมโนเรล",
      "railway": "station",
      "public_transport": "station",
      "station": "monorail"
    },
    {
      "osm_id": 11052599118,
      "lat": 13.7382388,
      "lon": 100.6397067,
      "name": "หัวหมาก",
      "name_en": "Hua Mak",
      "name_th": "หัวหมาก",
      "ref": "หม.",
      "network": "การรถไฟแห่งประเทศไทย",
      "line": "",
      "operator": "",
      "railway": "station",
      "public_transport": "station",
      "station": ""
    },
    {
      "osm_id": 11364308558,
      "lat": 13.8596996,
      "lon": 100.5181056,
      "name": "ศูนย์ราชการนนทบุรี",
      "name_en": "Nonthaburi Civic Center",
      "name_th": "ศูนย์ราชการนนทบุรี",
      "ref": "PK01",
      "network": "MRT",
      "line": "",
      "operator": "นอร์ทเทิร์นบางกอกโมโนเรล",
      "railway": "stop",
      "public_transport": "stop_position",
      "station": ""
    },
    {
      "osm_id": 11364361870,
      "lat": 13.8626398,
      "lon": 100.5206417,
      "name": "แคราย",
      "name_en": "Khae Rai",
      "name_th": "แคราย",
      "ref": "PK02",
      "network": "MRT",
      "line": "",
      "operator": "นอร์ทเทิร์นบางกอกโมโนเรล",
      "railway": "stop",
      "public_transport": "stop_position",
      "station": ""
    },
    {
      "osm_id": 11364361909,
      "lat": 13.9006355,
      "lon": 100.5400305,
      "name": "ศรีรัช",
      "name_en": "Si Rat",
      "name_th": "ศรีรัช",
      "ref": "PK09",
      "network": "MRT",
      "line": "",
      "operator": "นอร์ทเทิร์นบางกอกโมโนเรล",
      "railway": "stop",
      "public_transport": "stop_position",
      "station": ""
    },
    {
      "osm_id": 11364361936,
      "lat": 13.8973975,
      "lon": 100.5484363,
      "name": "เมืองทองธานี",
      "name_en": "Muang Thong Thani",
      "name_th": "เมืองทองธานี",
      "ref": "PK10",
      "network": "MRT",
      "line": "",
      "operator": "นอร์ทเทิร์นบางกอกโมโนเรล",
      "railway": "stop",
      "public_transport": "stop_position",
      "station": ""
    },
    {
      "osm_id": 11364361948,
      "lat": 13.8932826,
      "lon": 100.5601429,
      "name": "แจ้งวัฒนะ 14",
      "name_en": "Chaeng Watthana 14",
      "name_th": "แจ้งวัฒนะ 14",
      "ref": "PK11",
      "network": "MRT",
      "line": "",
      "operator": "นอร์ทเทิร์นบางกอกโมโนเรล",
      "railway": "stop",
      "public_transport": "stop_position",
      "station": ""
    },
    {
      "osm_id": 11364411040,
      "lat": 13.8125125,
      "lon": 100.7258382,
      "name": "ตลาดมีนบุรี",
      "name_en": "Min Buri Market",
      "name_th": "ตลาดมีนบุรี",
      "ref": "PK29",
      "network": "MRT",
      "line": "",
      "operator": "นอร์ทเทิร์นบางกอกโมโนเรล",
      "railway": "station",
      "public_transport": "station",
      "station": "monorail"
    },
    {
      "osm_id": 11364465362,
      "lat": 13.8907528,
      "lon": 100.5673425,
      "name": "ศูนย์ราชการเฉลิมพระเกียรติ",
      "name_en": "Government Complex",
      "name_th": "ศูนย์ราชการเฉลิมพระเกียรติ",
      "ref": "PK12",
      "network": "MRT",
      "line": "",
      "operator": "นอร์ทเทิร์นบางกอกโมโนเรล",
      "railway": "stop",
      "public_transport": "stop_position",
      "station": ""
    },
    {
      "osm_id": 11364501869,
      "lat": 13.8875633,
      "lon": 100.5757092,
      "name": "โทรคมนาคมแห่งชาติ",
      "name_en": "National Telecom",
      "name_th": "โทรคมนาคมแห่งชาติ",
      "ref": "PK13",
      "network": "MRT",
      "line": "",
      "operator": "นอร์ทเทิร์นบางกอกโมโนเรล",
      "railway": "stop",
      "public_transport": "stop_position",
      "station": ""
    },
    {
      "osm_id": 11364501942,
      "lat": 13.812694,
      "lon": 100.7126294,
      "name": "เศรษฐบุตรบำเพ็ญ",
      "name_en": "Setthabutbamphen",
      "name_th": "เศรษฐบุตรบำเพ็ญ",
      "ref": "PK28",
      "network": "",
      "line": "",
      "operator": "นอร์ทเทิร์นบางกอกโมโนเรล",
      "railway": "station",
      "public_transport": "station",
      "station": "monorail"
    },
    {
      "osm_id": 11364501951,
      "lat": 13.8084135,
      "lon": 100.7326906,
      "name": "มีนบุรี",
      "name_en": "Min Buri",
      "name_th": "มีนบุรี",
      "ref": "PK30",
      "network": "",
      "line": "",
      "operator": "นอร์ทเทิร์นบางกอกโมโนเรล",
      "railway": "station",
      "public_transport": "station",
      "station": "monorail"
    },
    {
      "osm_id": 11505460640,
      "lat": 13.74651,
      "lon": 100.5290855,
      "name": "สนามกีฬาแห่งชาติ",
      "name_en": "National Stadium",
      "name_th": "สนามกีฬาแห่งชาติ",
      "ref": "W1",
      "network": "",
      "line": "",
      "operator": "ระบบขนส่งมวลชนกรุงเทพ",
      "railway": "station",
      "public_transport": "station",
      "station": "subway"
    },
    {
      "osm_id": 12122842058,
      "lat": 13.7248051,
      "lon": 100.8243789,
      "name": "สถานีคลองมอญ",
      "name_en": "",
      "name_th": "",
      "ref": "",
      "network": "",
      "line": "",
      "operator": "",
      "railway": "halt",
      "public_transport": "",
      "station": ""
    },
    {
      "osm_id": 12803589960,
      "lat": 13.7291982,
      "lon": 100.5370702,
      "name": "สีลม",
      "name_en": "Si Lom",
      "name_th": "สีลม",
      "ref": "BL26",
      "network": "",
      "line": "",
      "operator": "ทางด่วนและรถไฟฟ้ากรุงเทพ",
      "railway": "station",
      "public_transport": "station",
      "station": "subway"
    },
    {
      "osm_id": 12803915074,
      "lat": 13.7422095,
      "lon": 100.5099097,
      "name": "วัดมังกร",
      "name_en": "Wat Mangkon",
      "name_th": "",
      "ref": "BL29",
      "network": "",
      "line": "",
      "operator": "ทางด่วนและรถไฟฟ้ากรุงเทพ",
      "railway": "station",
      "public_transport": "station",
      "station": "subway"
    },
    {
      "osm_id": 12803915076,
      "lat": 13.7470004,
      "lon": 100.5023022,
      "name": "สามยอด",
      "name_en": "Sam Yot",
      "name_th": "",
      "ref": "BL30",
      "network": "",
      "line": "",
      "operator": "ทางด่วนและรถไฟฟ้ากรุงเทพ",
      "railway": "station",
      "public_transport": "station",
      "station": "subway"
    },
    {
      "osm_id": 12803915077,
      "lat": 13.7443259,
      "lon": 100.4946239,
      "name": "สนามไชย",
      "name_en": "Sanam Chai",
      "name_th": "สนามไชย",
      "ref": "BL31",
      "network": "",
      "line": "",
      "operator": "ทางด่วนและรถไฟฟ้ากรุงเทพ",
      "railway": "station",
      "public_transport": "station",
      "station": "subway"
    },
    {
      "osm_id": 12803915078,
      "lat": 13.7320608,
      "lon": 100.5301206,
      "name": "สามย่าน",
      "name_en": "Sam Yan",
      "name_th": "สามย่าน",
      "ref": "BL27",
      "network": "",
      "line": "",
      "operator": "ทางด่วนและรถไฟฟ้ากรุงเทพ",
      "railway": "station",
      "public_transport": "station",
      "station": "subway"
    },
    {
      "osm_id": 12803915080,
      "lat": 13.7383645,
      "lon": 100.4857002,
      "name": "อิสรภาพ",
      "name_en": "Itsaraphap",
      "name_th": "",
      "ref": "BL32",
      "network": "",
      "line": "",
      "operator": "ทางด่วนและรถไฟฟ้ากรุงเทพ",
      "railway": "station",
      "public_transport": "station",
      "station": "subway"
    },
    {
      "osm_id": 12803915082,
      "lat": 13.8023925,
      "lon": 100.5410464,
      "name": "บางซื่อ",
      "name_en": "Bang Sue",
      "name_th": "บางซื่อ",
      "ref": "BL11",
      "network": "",
      "line": "",
      "operator": "ทางด่วนและรถไฟฟ้ากรุงเทพ",
      "railway": "station",
      "public_transport": "station",
      "station": "subway"
    },
    {
      "osm_id": 12805950167,
      "lat": 13.7491853,
      "lon": 100.5634165,
      "name": "เพชรบุรี",
      "name_en": "Phetchaburi",
      "name_th": "เพชรบุรี",
      "ref": "BL21",
      "network": "",
      "line": "",
      "operator": "ทางด่วนและรถไฟฟ้ากรุงเทพ",
      "railway": "station",
      "public_transport": "station",
      "station": "subway"
    },
    {
      "osm_id": 12848732941,
      "lat": 13.8975407,
      "lon": 100.5484874,
      "name": "เมืองทองธานี",
      "name_en": "Muang Thong Thani",
      "name_th": "เมืองทองธานี",
      "ref": "PK10",
      "network": "MRT",
      "line": "",
      "operator": "นอร์ทเทิร์นบางกอกโมโนเรล",
      "railway": "stop",
      "public_transport": "stop_position",
      "station": ""
    },
    {
      "osm_id": 13373875189,
      "lat": 13.6914254,
      "lon": 100.7504793,
      "name": "อาคารผู้โดยสารหลัก",
      "name_en": "",
      "name_th": "อาคารผู้โดยสารหลัก",
      "ref": "",
      "network": "",
      "line": "",
      "operator": "",
      "railway": "station",
      "public_transport": "station",
      "station": "light_rail"
    },
    {
      "osm_id": 13373875190,
      "lat": 13.6824933,
      "lon": 100.7482188,
      "name": "อาคารเทียบเครื่องบินรองหลังที่ 1",
      "name_en": "Midfield Satellite Concourse 1",
      "name_th": "อาคารเทียบเครื่องบินรองหลังที่ 1",
      "ref": "",
      "network": "",
      "line": "",
      "operator": "",
      "railway": "station",
      "public_transport": "station",
      "station": "light_rail"
    },
    {
      "osm_id": 13410325190,
      "lat": 13.7916638,
      "lon": 100.70018,
      "name": "ราษฎร์พัฒนา",
      "name_en": "Rat Phatthana",
      "name_th": "ราษฎร์พัฒนา",
      "ref": "",
      "network": "",
      "line": "",
      "operator": "ทางด่วนและรถไฟฟ้ากรุงเทพ",
      "railway": "construction",
      "public_transport": "station",
      "station": "subway"
    }
  ],
  "count": 253
}