{
  "lines": {
    "green_sukhumvit": {
      "name": "BTS Sukhumvit Line",
      "color": "#8BC34A"
    },
    "green_silom": {
      "name": "BTS Silom Line",
      "color": "#8BC34A"
    },
    "blue": {
      "name": "MRT Blue Line",
      "color": "#1565C0"
    },
    "purple": {
      "name": "MRT Purple Line",
      "color": "#7B1FA2"
    },
    "airport": {
      "name": "Airport Rail Link",
      "color": "#D32F2F"
    },
    "yellow": {
      "name": "Yellow Line",
      "color": "#FDD835"
    },
    "pink": {
      "name": "Pink Line",
      "color": "#EC407A"
    },
    "red_north": {
      "name": "Red Line (Rangsit)",
      "color": "#C62828"
    },
    "red_west": {
      "name": "Red Line (Taling Chan)",
      "color": "#C62828"
    },
    "gold": {
      "name": "Gold Line",
      "color": "#F9A825"
    }
  },
  "stations": {
    "gn24": {
      "name": "Khu Khot",
      "nameTh": "คูคต",
      "lat": 13.9328,
      "lng": 100.6453,
      "line": "green_sukhumvit"
    },
    "gn22": {
      "name": "Royal Thai Air Force Museum",
      "nameTh": "พิพิธภัณฑ์กองทัพอากาศ",
      "lat": 13.9178,
      "lng": 100.6216,
      "line": "green_sukhumvit"
    },
    "gn19": {
      "name": "Saphan Mai",
      "nameTh": "สะพานใหม่",
      "lat": 13.896,
      "lng": 100.5953,
      "line": "green_sukhumvit"
    },
    "gn17": {
      "name": "Wat Phra Sri Mahathat",
      "nameTh": "วัดพระศรีมหาธาตุ",
      "lat": 13.8779,
      "lng": 100.582,
      "line": "green_sukhumvit"
    },
    "gn13": {
      "name": "Kasetsart University",
      "nameTh": "มหาวิทยาลัยเกษตรศาสตร์",
      "lat": 13.8506,
      "lng": 100.5544,
      "line": "green_sukhumvit"
    },
    "gn9": {
      "name": "Ha Yaek Lat Phrao",
      "nameTh": "ห้าแยกลาดพร้าว",
      "lat": 13.8166,
      "lng": 100.5617,
      "line": "green_sukhumvit"
    },
    "gn5": {
      "name": "Saphan Khwai",
      "nameTh": "สะพานควาย",
      "lat": 13.7938,
      "lng": 100.5494,
      "line": "green_sukhumvit"
    },
    "gn3": {
      "name": "Ari",
      "nameTh": "อารีย์",
      "lat": 13.7797,
      "lng": 100.5449,
      "line": "green_sukhumvit"
    },
    "gn1": {
      "name": "Mo Chit",
      "nameTh": "หมอชิต",
      "lat": 13.8027,
      "lng": 100.5537,
      "line": "green_sukhumvit"
    },
    "ctb": {
      "name": "Siam",
      "nameTh": "สยาม",
      "lat": 13.7454,
      "lng": 100.5342,
      "line": "green_sukhumvit"
    },
    "ge1": {
      "name": "Chit Lom",
      "nameTh": "ชิดลม",
      "lat": 13.7441,
      "lng": 100.543,
      "line": "green_sukhumvit"
    },
    "ge3": {
      "name": "Nana",
      "nameTh": "นานา",
      "lat": 13.7401,
      "lng": 100.5552,
      "line": "green_sukhumvit"
    },
    "ge4": {
      "name": "Asok",
      "nameTh": "อโศก",
      "lat": 13.7369,
      "lng": 100.5601,
      "line": "green_sukhumvit"
    },
    "ge6": {
      "name": "Thong Lo",
      "nameTh": "ทองหล่อ",
      "lat": 13.7246,
      "lng": 100.5782,
      "line": "green_sukhumvit"
    },
    "ge8": {
      "name": "On Nut",
      "nameTh": "อ่อนนุช",
      "lat": 13.7055,
      "lng": 100.6012,
      "line": "green_sukhumvit"
    },
    "ge12": {
      "name": "Bearing",
      "nameTh": "แบริ่ง",
      "lat": 13.6811,
      "lng": 100.639,
      "line": "green_sukhumvit"
    },
    "ge14": {
      "name": "Samrong",
      "nameTh": "สำโรง",
      "lat": 13.6452,
      "lng": 100.6553,
      "line": "green_sukhumvit"
    },
    "ge19": {
      "name": "Pak Nam",
      "nameTh": "ปากน้ำ",
      "lat": 13.6025,
      "lng": 100.5976,
      "line": "green_sukhumvit"
    },
    "ge23": {
      "name": "Kheha",
      "nameTh": "เคหะฯ",
      "lat": 13.5686,
      "lng": 100.5808,
      "line": "green_sukhumvit"
    },
    "cta": {
      "name": "National Stadium",
      "nameTh": "สนามกีฬาแห่งชาติ",
      "lat": 13.7462,
      "lng": 100.529,
      "line": "green_silom"
    },
    "gs1": {
      "name": "Ratchadamri",
      "nameTh": "ราชดำริ",
      "lat": 13.7437,
      "lng": 100.5399,
      "line": "green_silom"
    },
    "gs3": {
      "name": "Chong Nonsi",
      "nameTh": "ช่องนนทรี",
      "lat": 13.7234,
      "lng": 100.529,
      "line": "green_silom"
    },
    "gs5": {
      "name": "Surasak",
      "nameTh": "สุรศักดิ์",
      "lat": 13.719,
      "lng": 100.5178,
      "line": "green_silom"
    },
    "gs6": {
      "name": "Saphan Taksin",
      "nameTh": "สะพานตากสิน",
      "lat": 13.7186,
      "lng": 100.5143,
      "line": "green_silom"
    },
    "gs8": {
      "name": "Krung Thon Buri",
      "nameTh": "กรุงธนบุรี",
      "lat": 13.7209,
      "lng": 100.5027,
      "line": "green_silom"
    },
    "gs10": {
      "name": "Wutthakat",
      "nameTh": "วุฒากาศ",
      "lat": 13.713,
      "lng": 100.4872,
      "line": "green_silom"
    },
    "gs12": {
      "name": "Bang Wa",
      "nameTh": "บางหว้า",
      "lat": 13.7209,
      "lng": 100.4576,
      "line": "green_silom"
    },
    "bl1": {
      "name": "Hua Lamphong",
      "nameTh": "หัวลำโพง",
      "lat": 13.7378,
      "lng": 100.5173,
      "line": "blue"
    },
    "bl3": {
      "name": "Sam Yan",
      "nameTh": "สามย่าน",
      "lat": 13.7321,
      "lng": 100.5291,
      "line": "blue"
    },
    "bl5": {
      "name": "Si Lom",
      "nameTh": "สีลม",
      "lat": 13.7285,
      "lng": 100.5365,
      "line": "blue"
    },
    "bl7": {
      "name": "Lumphini",
      "nameTh": "ลุมพินี",
      "lat": 13.7258,
      "lng": 100.5467,
      "line": "blue"
    },
    "bl10": {
      "name": "Phetchaburi",
      "nameTh": "เพชรบุรี",
      "lat": 13.7484,
      "lng": 100.5621,
      "line": "blue"
    },
    "bl13": {
      "name": "Phra Ram 9",
      "nameTh": "พระราม 9",
      "lat": 13.7576,
      "lng": 100.5651,
      "line": "blue"
    },
    "bl15": {
      "name": "Thailand Cultural Centre",
      "nameTh": "ศูนย์วัฒนธรรมฯ",
      "lat": 13.7651,
      "lng": 100.5703,
      "line": "blue"
    },
    "bl17": {
      "name": "Sutthisan",
      "nameTh": "สุทธิสาร",
      "lat": 13.7794,
      "lng": 100.574,
      "line": "blue"
    },
    "bl19": {
      "name": "Ratchadaphisek",
      "nameTh": "รัชดาภิเษก",
      "lat": 13.7865,
      "lng": 100.5738,
      "line": "blue"
    },
    "bl21": {
      "name": "Phahon Yothin",
      "nameTh": "พหลโยธิน",
      "lat": 13.8129,
      "lng": 100.5615,
      "line": "blue"
    },
    "bl22": {
      "name": "Chatuchak Park",
      "nameTh": "สวนจตุจักร",
      "lat": 13.8023,
      "lng": 100.5536,
      "line": "blue"
    },
    "bl24": {
      "name": "Kamphaeng Phet",
      "nameTh": "กำแพงเพชร",
      "lat": 13.8092,
      "lng": 100.5507,
      "line": "blue"
    },
    "bl26": {
      "name": "Bang Sue",
      "nameTh": "บางซื่อ",
      "lat": 13.8064,
      "lng": 100.528,
      "line": "blue"
    },
    "bl28": {
      "name": "Bang Pho",
      "nameTh": "บางโพ",
      "lat": 13.8062,
      "lng": 100.5095,
      "line": "blue"
    },
    "bl30": {
      "name": "Bang Yi Khan",
      "nameTh": "บางยี่ขัน",
      "lat": 13.7898,
      "lng": 100.488,
      "line": "blue"
    },
    "bl32": {
      "name": "Itsaraphap",
      "nameTh": "อิสรภาพ",
      "lat": 13.7568,
      "lng": 100.4854,
      "line": "blue"
    },
    "bl34": {
      "name": "Tha Phra",
      "nameTh": "ท่าพระ",
      "lat": 13.728,
      "lng": 100.4634,
      "line": "blue"
    },
    "bl36": {
      "name": "Bang Khae",
      "nameTh": "บางแค",
      "lat": 13.7199,
      "lng": 100.4072,
      "line": "blue"
    },
    "bl38": {
      "name": "Lak Song",
      "nameTh": "หลักสอง",
      "lat": 13.7218,
      "lng": 100.3903,
      "line": "blue"
    },
    "pp1": {
      "name": "Khlong Bang Phai",
      "nameTh": "คลองบางไผ่",
      "lat": 13.8969,
      "lng": 100.4136,
      "line": "purple"
    },
    "pp4": {
      "name": "Sam Yaek Bang Yai",
      "nameTh": "สามแยกบางใหญ่",
      "lat": 13.8754,
      "lng": 100.4269,
      "line": "purple"
    },
    "pp7": {
      "name": "Yaek Nonthaburi 1",
      "nameTh": "แยกนนทบุรี 1",
      "lat": 13.8558,
      "lng": 100.4788,
      "line": "purple"
    },
    "pp9": {
      "name": "Ministry of Public Health",
      "nameTh": "กระทรวงสาธารณสุข",
      "lat": 13.8469,
      "lng": 100.5041,
      "line": "purple"
    },
    "pp11": {
      "name": "Nonthaburi Civic Center",
      "nameTh": "ศูนย์ราชการนนทบุรี",
      "lat": 13.8557,
      "lng": 100.5166,
      "line": "purple"
    },
    "pp14": {
      "name": "Wong Sawang",
      "nameTh": "วงศ์สว่าง",
      "lat": 13.838,
      "lng": 100.5278,
      "line": "purple"
    },
    "pp16": {
      "name": "Tao Poon",
      "nameTh": "เตาปูน",
      "lat": 13.8064,
      "lng": 100.5316,
      "line": "purple"
    },
    "arl1": {
      "name": "Phaya Thai",
      "nameTh": "พญาไท",
      "lat": 13.7565,
      "lng": 100.5343,
      "line": "airport"
    },
    "arl2": {
      "name": "Ratchaprarop",
      "nameTh": "ราชปรารภ",
      "lat": 13.7534,
      "lng": 100.5421,
      "line": "airport"
    },
    "arl3": {
      "name": "Makkasan",
      "nameTh": "มักกะสัน",
      "lat": 13.75,
      "lng": 100.56,
      "line": "airport"
    },
    "arl4": {
      "name": "Ramkhamhaeng",
      "nameTh": "รามคำแหง",
      "lat": 13.7546,
      "lng": 100.6062,
      "line": "airport"
    },
    "arl5": {
      "name": "Hua Mak",
      "nameTh": "หัวหมาก",
      "lat": 13.738,
      "lng": 100.6453,
      "line": "airport"
    },
    "arl6": {
      "name": "Ban Thap Chang",
      "nameTh": "บ้านทับช้าง",
      "lat": 13.7278,
      "lng": 100.6744,
      "line": "airport"
    },
    "arl7": {
      "name": "Lat Krabang",
      "nameTh": "ลาดกระบัง",
      "lat": 13.7275,
      "lng": 100.7176,
      "line": "airport"
    },
    "arl8": {
      "name": "Suvarnabhumi",
      "nameTh": "สุวรรณภูมิ",
      "lat": 13.69,
      "lng": 100.7501,
      "line": "airport"
    },
    "yl1": {
      "name": "Lat Phrao",
      "nameTh": "ลาดพร้าว",
      "lat": 13.8059,
      "lng": 100.5731,
      "line": "yellow"
    },
    "yl5": {
      "name": "Chokchai 4",
      "nameTh": "โชคชัย 4",
      "lat": 13.7906,
      "lng": 100.6029,
      "line": "yellow"
    },
    "yl8": {
      "name": "Lat Phrao 71",
      "nameTh": "ลาดพร้าว 71",
      "lat": 13.7799,
      "lng": 100.6222,
      "line": "yellow"
    },
    "yl11": {
      "name": "Hua Mak",
      "nameTh": "หัวหมาก",
      "lat": 13.7569,
      "lng": 100.6435,
      "line": "yellow"
    },
    "yl14": {
      "name": "Si Nut",
      "nameTh": "ศรีนุช",
      "lat": 13.7354,
      "lng": 100.6556,
      "line": "yellow"
    },
    "yl17": {
      "name": "Si Thepha",
      "nameTh": "ศรีเทพา",
      "lat": 13.7029,
      "lng": 100.671,
      "line": "yellow"
    },
    "yl20": {
      "name": "Si Bearing",
      "nameTh": "ศรีแบริ่ง",
      "lat": 13.6691,
      "lng": 100.6691,
      "line": "yellow"
    },
    "yl23": {
      "name": "Sam Rong",
      "nameTh": "สำโรง",
      "lat": 13.6452,
      "lng": 100.6553,
      "line": "yellow"
    },
    "pk1": {
      "name": "Nonthaburi Civic Center",
      "nameTh": "ศูนย์ราชการนนทบุรี",
      "lat": 13.8557,
      "lng": 100.5166,
      "line": "pink"
    },
    "pk5": {
      "name": "Pak Kret",
      "nameTh": "ปากเกร็ด",
      "lat": 13.893,
      "lng": 100.5243,
      "line": "pink"
    },
    "pk9": {
      "name": "Lak Si",
      "nameTh": "หลักสี่",
      "lat": 13.8865,
      "lng": 100.5645,
      "line": "pink"
    },
    "pk14": {
      "name": "Rangsit-Nakhon Nayok 3",
      "nameTh": "รังสิต-นครนายก 3",
      "lat": 13.883,
      "lng": 100.6165,
      "line": "pink"
    },
    "pk17": {
      "name": "Nopparat",
      "nameTh": "นพรัตนราชธานี",
      "lat": 13.8573,
      "lng": 100.6492,
      "line": "pink"
    },
    "pk21": {
      "name": "Ram Inthra 3",
      "nameTh": "รามอินทรา 3",
      "lat": 13.8364,
      "lng": 100.6446,
      "line": "pink"
    },
    "pk25": {
      "name": "Khlong Ban Ma",
      "nameTh": "คลองบ้านม้า",
      "lat": 13.801,
      "lng": 100.6337,
      "line": "pink"
    },
    "pk30": {
      "name": "Min Buri",
      "nameTh": "มีนบุรี",
      "lat": 13.812,
      "lng": 100.7281,
      "line": "pink"
    },
    "rdn1": {
      "name": "Krung Thep Aphiwat",
      "nameTh": "กรุงเทพอภิวัฒน์",
      "lat": 13.8123,
      "lng": 100.527,
      "line": "red_north"
    },
    "rdn3": {
      "name": "Bang Khen",
      "nameTh": "บางเขน",
      "lat": 13.8541,
      "lng": 100.5858,
      "line": "red_north"
    },
    "rdn6": {
      "name": "Don Mueang",
      "nameTh": "ดอนเมือง",
      "lat": 13.9133,
      "lng": 100.5957,
      "line": "red_north"
    },
    "rdn10": {
      "name": "Rangsit",
      "nameTh": "รังสิต",
      "lat": 13.9635,
      "lng": 100.6046,
      "line": "red_north"
    },
    "rdw1": {
      "name": "Krung Thep Aphiwat",
      "nameTh": "กรุงเทพอภิวัฒน์",
      "lat": 13.8123,
      "lng": 100.527,
      "line": "red_west"
    },
    "rdw2": {
      "name": "Bang Son",
      "nameTh": "บางซ่อน",
      "lat": 13.8046,
      "lng": 100.5132,
      "line": "red_west"
    },
    "rdw3": {
      "name": "Bang Bamru",
      "nameTh": "บางบำหรุ",
      "lat": 13.7965,
      "lng": 100.4862,
      "line": "red_west"
    },
    "rdw4": {
      "name": "Taling Chan",
      "nameTh": "ตลิ่งชัน",
      "lat": 13.7834,
      "lng": 100.4554,
      "line": "red_west"
    },
    "gw1": {
      "name": "Khlong San",
      "nameTh": "คลองสาน",
      "lat": 13.7224,
      "lng": 100.5079,
      "line": "gold"
    },
    "gd2": {
      "name": "Charoen Nakhon",
      "nameTh": "เจริญนคร",
      "lat": 13.7244,
      "lng": 100.501,
      "line": "gold"
    },
    "gd3": {
      "name": "Khlong Ton Sai",
      "nameTh": "คลองต้นไทร",
      "lat": 13.723,
      "lng": 100.4942,
      "line": "gold"
    },
    "dmk": {
      "name": "Don Mueang Airport",
      "nameTh": "ดอนเมือง",
      "lat": 13.9133,
      "lng": 100.5957,
      "line": "red_north"
    },
    "bkk": {
      "name": "Suvarnabhumi Airport",
      "nameTh": "สุวรรณภูมิ",
      "lat": 13.69,
      "lng": 100.7501,
      "line": "airport"
    },
    "central": {
      "name": "Krung Thep Aphiwat Central",
      "nameTh": "กรุงเทพอภิวัฒน์",
      "lat": 13.8123,
      "lng": 100.527,
      "line": "red_north"
    },
    "bsanx": {
      "name": "Bang Sue Junction",
      "nameTh": "ชุมทางบางซื่อ",
      "lat": 13.8027,
      "lng": 100.5537,
      "line": "green_sukhumvit"
    },
    "bcen": {
      "name": "Bang Chak",
      "nameTh": "บางจาก",
      "lat": 13.7186,
      "lng": 100.5143,
      "line": "green_silom"
    },
    "bicon": {
      "name": "ICONSIAM",
      "nameTh": "ไอคอนสยาม",
      "lat": 13.7244,
      "lng": 100.501,
      "line": "gold"
    },
    "bbrd": {
      "name": "Bang Rak Noi",
      "nameTh": "บางรักน้อย",
      "lat": 13.8469,
      "lng": 100.5041,
      "line": "purple"
    },
    "bn22": {
      "name": "Bang Sue",
      "nameTh": "บางซื่อ",
      "lat": 13.8064,
      "lng": 100.528,
      "line": "blue"
    },
    "bn7": {
      "name": "Bang Pho Interchange",
      "nameTh": "บางโพ",
      "lat": 13.8062,
      "lng": 100.5095,
      "line": "blue"
    },
    "brt1": {
      "name": "BRT Ratchapruek",
      "nameTh": "ราชพฤกษ์",
      "lat": 13.713,
      "lng": 100.4872,
      "line": "green_silom"
    },
    "brtn": {
      "name": "BRT Nararam 3",
      "nameTh": "นราราม 3",
      "lat": 13.7234,
      "lng": 100.529,
      "line": "green_silom"
    },
    "bl11": {
      "name": "Sukhumvit",
      "nameTh": "สุขุมวิท",
      "lat": 13.75127,
      "lng": 100.56393,
      "line": "blue"
    },
    "bl12": {
      "name": "Phetchaburi 2",
      "nameTh": "เพชรบุรี 2",
      "lat": 13.75442,
      "lng": 100.56464,
      "line": "blue"
    },
    "bl14": {
      "name": "Phra Ram 9 2",
      "nameTh": "พระราม 9-2",
      "lat": 13.7619,
      "lng": 100.56693,
      "line": "blue"
    },
    "bl16": {
      "name": "Huai Khwang",
      "nameTh": "ห้วยขวาง",
      "lat": 13.77217,
      "lng": 100.57335,
      "line": "blue"
    },
    "bl18": {
      "name": "Sutthisan 2",
      "nameTh": "สุทธิสาร 2",
      "lat": 13.78295,
      "lng": 100.57386,
      "line": "blue"
    },
    "bl1a": {
      "name": "Wat Mangkon",
      "nameTh": "วัดมังกร",
      "lat": 13.73557,
      "lng": 100.52165,
      "line": "blue"
    },
    "bl2": {
      "name": "Sam Yot",
      "nameTh": "สามยอด",
      "lat": 13.73401,
      "lng": 100.52545,
      "line": "blue"
    },
    "bl20": {
      "name": "Lat Phrao",
      "nameTh": "ลาดพร้าว",
      "lat": 13.79938,
      "lng": 100.57463,
      "line": "blue"
    },
    "bl23": {
      "name": "Chatuchak 2",
      "nameTh": "จตุจักร 2",
      "lat": 13.80461,
      "lng": 100.55417,
      "line": "blue"
    },
    "bl25": {
      "name": "Bang Sue",
      "nameTh": "บางซื่อ",
      "lat": 13.80415,
      "lng": 100.53738,
      "line": "blue"
    },
    "bl27": {
      "name": "Bang Pho",
      "nameTh": "บางโพ",
      "lat": 13.80616,
      "lng": 100.51878,
      "line": "blue"
    },
    "bl29": {
      "name": "Sirindhorn",
      "nameTh": "สิรินธร",
      "lat": 13.79308,
      "lng": 100.50535,
      "line": "blue"
    },
    "bl31": {
      "name": "Bang Khun Non",
      "nameTh": "บางขุนนนท์",
      "lat": 13.77546,
      "lng": 100.48372,
      "line": "blue"
    },
    "bl33": {
      "name": "Sanam Chai",
      "nameTh": "สนามไชย",
      "lat": 13.73361,
      "lng": 100.49025,
      "line": "blue"
    },
    "bl35": {
      "name": "Phetkasem 48",
      "nameTh": "เพชรเกษม 48",
      "lat": 13.71923,
      "lng": 100.43675,
      "line": "blue"
    },
    "bl37": {
      "name": "Phasi Charoen",
      "nameTh": "ภาษีเจริญ",
      "lat": 13.71086,
      "lng": 100.40949,
      "line": "blue"
    },
    "bl4": {
      "name": "Si Lom 2",
      "nameTh": "สีลม 2",
      "lat": 13.73091,
      "lng": 100.53306,
      "line": "blue"
    },
    "bl6": {
      "name": "Khlong Toei",
      "nameTh": "คลองเตย",
      "lat": 13.72729,
      "lng": 100.54166,
      "line": "blue"
    },
    "bl8": {
      "name": "Khlong Toei",
      "nameTh": "คลองเตย",
      "lat": 13.73266,
      "lng": 100.55995,
      "line": "blue"
    },
    "bl9": {
      "name": "Queen Sirikit",
      "nameTh": "ศูนย์สิริกิติ์",
      "lat": 13.74049,
      "lng": 100.56196,
      "line": "blue"
    },
    "ge10": {
      "name": "Royal Thai Naval Academy",
      "nameTh": "โรงเรียนนายเรือ",
      "lat": 13.68814,
      "lng": 100.60958,
      "line": "green_sukhumvit"
    },
    "ge11": {
      "name": "Pak Nam",
      "nameTh": "ปากน้ำ",
      "lat": 13.68533,
      "lng": 100.61043,
      "line": "green_sukhumvit"
    },
    "ge13": {
      "name": "Si Nagarindra",
      "nameTh": "ศรีนครินทร์",
      "lat": 13.67821,
      "lng": 100.60881,
      "line": "green_sukhumvit"
    },
    "ge15": {
      "name": "Si La Salle",
      "nameTh": "ศรีลาซาล",
      "lat": 13.65427,
      "lng": 100.59899,
      "line": "green_sukhumvit"
    },
    "ge16": {
      "name": "Si Bearing",
      "nameTh": "ศรีแบริ่ง",
      "lat": 13.64346,
      "lng": 100.59458,
      "line": "green_sukhumvit"
    },
    "ge17": {
      "name": "Si Dan",
      "nameTh": "ศรีด่าน",
      "lat": 13.59613,
      "lng": 100.60638,
      "line": "green_sukhumvit"
    },
    "ge18": {
      "name": "Si Thepha",
      "nameTh": "ศรีเทพา",
      "lat": 13.60625,
      "lng": 100.59573,
      "line": "green_sukhumvit"
    },
    "ge2": {
      "name": "Bearing",
      "nameTh": "แบริ่ง",
      "lat": 13.74304,
      "lng": 100.54926,
      "line": "green_sukhumvit"
    },
    "ge20": {
      "name": "Thipphawan",
      "nameTh": "ทิพวัล",
      "lat": 13.60022,
      "lng": 100.59783,
      "line": "green_sukhumvit"
    },
    "ge21": {
      "name": "Sai Luat",
      "nameTh": "สายลวด",
      "lat": 13.60005,
      "lng": 100.5981,
      "line": "green_sukhumvit"
    },
    "ge22": {
      "name": "Kheha",
      "nameTh": "เคหะฯ",
      "lat": 13.57565,
      "lng": 100.6047,
      "line": "green_sukhumvit"
    },
    "ge5": {
      "name": "Samrong",
      "nameTh": "สำโรง",
      "lat": 13.73082,
      "lng": 100.5692,
      "line": "green_sukhumvit"
    },
    "ge7": {
      "name": "Pu Chao",
      "nameTh": "ปู่เจ้า",
      "lat": 13.71508,
      "lng": 100.58972,
      "line": "green_sukhumvit"
    },
    "ge9": {
      "name": "Chang Erawan",
      "nameTh": "ช้างเอราวัณ",
      "lat": 13.6968,
      "lng": 100.60534,
      "line": "green_sukhumvit"
    },
    "gn10": {
      "name": "Ratchayothin",
      "nameTh": "รัชโยธิน",
      "lat": 13.82198,
      "lng": 100.56519,
      "line": "green_sukhumvit"
    },
    "gn11": {
      "name": "Phahon Yothin 24",
      "nameTh": "พหลโยธิน 24",
      "lat": 13.8275,
      "lng": 100.56843,
      "line": "green_sukhumvit"
    },
    "gn12": {
      "name": "Ha Yaek Lat Phrao",
      "nameTh": "ห้าแยกลาดพร้าว",
      "lat": 13.83304,
      "lng": 100.57168,
      "line": "green_sukhumvit"
    },
    "gn14": {
      "name": "Kasetsart University",
      "nameTh": "มหาวิทยาลัยเกษตรศาสตร์",
      "lat": 13.84726,
      "lng": 100.58006,
      "line": "green_sukhumvit"
    },
    "gn15": {
      "name": "Royal Forest Department",
      "nameTh": "กรมป่าไม้",
      "lat": 13.85547,
      "lng": 100.58486,
      "line": "green_sukhumvit"
    },
    "gn16": {
      "name": "Bang Bua",
      "nameTh": "บางบัว",
      "lat": 13.86293,
      "lng": 100.58925,
      "line": "green_sukhumvit"
    },
    "gn18": {
      "name": "11th Infantry Regiment",
      "nameTh": "กรมทหารราบที่ 11",
      "lat": 13.88051,
      "lng": 100.59962,
      "line": "green_sukhumvit"
    },
    "gn2": {
      "name": "Phaya Thai",
      "nameTh": "พญาไท",
      "lat": 13.79105,
      "lng": 100.54965,
      "line": "green_sukhumvit"
    },
    "gn20": {
      "name": "Sai Yut",
      "nameTh": "สายหยุด",
      "lat": 13.89935,
      "lng": 100.61072,
      "line": "green_sukhumvit"
    },
    "gn21": {
      "name": "Phahon Yothin 59",
      "nameTh": "พหลโยธิน 59",
      "lat": 13.90857,
      "lng": 100.61616,
      "line": "green_sukhumvit"
    },
    "gn23": {
      "name": "Wat Phra Sri Mahathat",
      "nameTh": "วัดพระศรีมหาธาตุ",
      "lat": 13.92869,
      "lng": 100.63159,
      "line": "green_sukhumvit"
    },
    "gn4": {
      "name": "Ari",
      "nameTh": "อารีย์",
      "lat": 13.78674,
      "lng": 100.54718,
      "line": "green_sukhumvit"
    },
    "gn7": {
      "name": "Saphan Khwai",
      "nameTh": "สะพานควาย",
      "lat": 13.80157,
      "lng": 100.55321,
      "line": "green_sukhumvit"
    },
    "gn8": {
      "name": "Sena Nikhom",
      "nameTh": "เสนานิคม",
      "lat": 13.80902,
      "lng": 100.55757,
      "line": "green_sukhumvit"
    },
    "gs11": {
      "name": "Pho Nimit",
      "nameTh": "โพธิ์นิมิตร",
      "lat": 13.72035,
      "lng": 100.47233,
      "line": "green_silom"
    },
    "gs2": {
      "name": "Sala Daeng",
      "nameTh": "ศาลาแดง",
      "lat": 13.73494,
      "lng": 100.53311,
      "line": "green_silom"
    },
    "gs4": {
      "name": "Surasak",
      "nameTh": "สุรศักดิ์",
      "lat": 13.71993,
      "lng": 100.52377,
      "line": "green_silom"
    },
    "gs7": {
      "name": "Krung Thon Buri",
      "nameTh": "กรุงธนบุรี",
      "lat": 13.71982,
      "lng": 100.50851,
      "line": "green_silom"
    },
    "gs9": {
      "name": "Wongwian Yai",
      "nameTh": "วงเวียนใหญ่",
      "lat": 13.72045,
      "lng": 100.4952,
      "line": "green_silom"
    },
    "pk10": {
      "name": "Si Rat",
      "nameTh": "ศรีรัช",
      "lat": 13.88749,
      "lng": 100.57584,
      "line": "pink"
    },
    "pk11": {
      "name": "Wat Phra Sri Mahathat",
      "nameTh": "วัดพระศรีมหาธาตุ",
      "lat": 13.88328,
      "lng": 100.5839,
      "line": "pink"
    },
    "pk12": {
      "name": "Ram Inthra 3",
      "nameTh": "รามอินทรา 3",
      "lat": 13.87822,
      "lng": 100.59225,
      "line": "pink"
    },
    "pk13": {
      "name": "Lat Pla Khao",
      "nameTh": "ลาดปลาเค้า",
      "lat": 13.87604,
      "lng": 100.59626,
      "line": "pink"
    },
    "pk15": {
      "name": "Ram Inthra-At Narong",
      "nameTh": "รามอินทรา-อาจณรงค์",
      "lat": 13.86139,
      "lng": 100.62037,
      "line": "pink"
    },
    "pk16": {
      "name": "Maitriphap",
      "nameTh": "ไมตรีจิต",
      "lat": 13.855,
      "lng": 100.63221,
      "line": "pink"
    },
    "pk18": {
      "name": "Nopparat",
      "nameTh": "นพรัตน์",
      "lat": 13.84772,
      "lng": 100.64568,
      "line": "pink"
    },
    "pk19": {
      "name": "Rat Phatthana",
      "nameTh": "รัชพัฒนา",
      "lat": 13.84701,
      "lng": 100.64699,
      "line": "pink"
    },
    "pk2": {
      "name": "Khae Rai",
      "nameTh": "แคราย",
      "lat": 13.86543,
      "lng": 100.51959,
      "line": "pink"
    },
    "pk20": {
      "name": "Min Buri",
      "nameTh": "มีนบุรี",
      "lat": 13.8463,
      "lng": 100.64829,
      "line": "pink"
    },
    "pk22": {
      "name": "Nom Klao",
      "nameTh": "นมคลาว",
      "lat": 13.84473,
      "lng": 100.65119,
      "line": "pink"
    },
    "pk23": {
      "name": "Khu Bon",
      "nameTh": "คูบอน",
      "lat": 13.84386,
      "lng": 100.65279,
      "line": "pink"
    },
    "pk24": {
      "name": "Sam Yaek",
      "nameTh": "สามแยก",
      "lat": 13.84299,
      "lng": 100.65439,
      "line": "pink"
    },
    "pk26": {
      "name": "Setthabutbamphen",
      "nameTh": "เศรษฐบุตรบำเพ็ญ",
      "lat": 13.82646,
      "lng": 100.6751,
      "line": "pink"
    },
    "pk27": {
      "name": "Bang Chan",
      "nameTh": "บางชัน",
      "lat": 13.81726,
      "lng": 100.68485,
      "line": "pink"
    },
    "pk28": {
      "name": "Min Buri Market",
      "nameTh": "ตลาดมีนบุรี",
      "lat": 13.81275,
      "lng": 100.69092,
      "line": "pink"
    },
    "pk29": {
      "name": "Min Buri Terminal",
      "nameTh": "มีนบุรี",
      "lat": 13.81269,
      "lng": 100.70923,
      "line": "pink"
    },
    "pk3": {
      "name": "Sanambin Nam",
      "nameTh": "สนามบินน้ำ",
      "lat": 13.87295,
      "lng": 100.51674,
      "line": "pink"
    },
    "pk4": {
      "name": "Samakkhi",
      "nameTh": "สามัคคี",
      "lat": 13.88046,
      "lng": 100.5139,
      "line": "pink"
    },
    "pk6": {
      "name": "Royal Irrigation Department",
      "nameTh": "กรมชลประทาน",
      "lat": 13.89803,
      "lng": 100.54235,
      "line": "pink"
    },
    "pk7": {
      "name": "Pak Kret Bypass",
      "nameTh": "ปากเกร็ดบายพาส",
      "lat": 13.89778,
      "lng": 100.54323,
      "line": "pink"
    },
    "pk8": {
      "name": "Chaeng Watthana-Pak Kret 28",
      "nameTh": "แจ้งวัฒนะ-ปากเกร็ด 28",
      "lat": 13.8945,
      "lng": 100.55669,
      "line": "pink"
    },
    "pp10": {
      "name": "Nonthaburi Civic Center",
      "nameTh": "ศูนย์ราชการนนทบุรี",
      "lat": 13.8485,
      "lng": 100.51478,
      "line": "purple"
    },
    "pp12": {
      "name": "Phra Nang Klao Bridge",
      "nameTh": "สะพานพระนั่งเกล้า",
      "lat": 13.85201,
      "lng": 100.51712,
      "line": "purple"
    },
    "pp13": {
      "name": "Yaek Nonthaburi 1",
      "nameTh": "แยกนนทบุรี 1",
      "lat": 13.83688,
      "lng": 100.51816,
      "line": "purple"
    },
    "pp15": {
      "name": "Yaek Tiwanon",
      "nameTh": "แยกติวานนท์",
      "lat": 13.82182,
      "lng": 100.53273,
      "line": "purple"
    },
    "pp2": {
      "name": "Khlong Bang Phai",
      "nameTh": "คลองบางไผ่",
      "lat": 13.88885,
      "lng": 100.40858,
      "line": "purple"
    },
    "pp3": {
      "name": "Talad Bang Yai",
      "nameTh": "ตลาดบางใหญ่",
      "lat": 13.87498,
      "lng": 100.42304,
      "line": "purple"
    },
    "pp5": {
      "name": "Sam Yaek Bang Yai",
      "nameTh": "สามแยกบางใหญ่",
      "lat": 13.87654,
      "lng": 100.44333,
      "line": "purple"
    },
    "pp6": {
      "name": "Bang Phlu",
      "nameTh": "บางพลู",
      "lat": 13.87114,
      "lng": 100.4645,
      "line": "purple"
    },
    "pp8": {
      "name": "Bang Rak Noi Tha It",
      "nameTh": "บางรักน้อย-ท่าอิฐ",
      "lat": 13.86406,
      "lng": 100.4979,
      "line": "purple"
    },
    "rdn2": {
      "name": "Chatuchak",
      "nameTh": "จตุจักร",
      "lat": 13.83468,
      "lng": 100.5537,
      "line": "red_north"
    },
    "rdn4": {
      "name": "Wat Samian Nari",
      "nameTh": "วัดเสมียนนารี",
      "lat": 13.87978,
      "lng": 100.57828,
      "line": "red_north"
    },
    "rdn5": {
      "name": "Bang Khen",
      "nameTh": "บางเขน",
      "lat": 13.89641,
      "lng": 100.5875,
      "line": "red_north"
    },
    "rdn7": {
      "name": "Lak Hok",
      "nameTh": "หลักหก",
      "lat": 13.92319,
      "lng": 100.60266,
      "line": "red_north"
    },
    "rdn8": {
      "name": "Don Mueang",
      "nameTh": "ดอนเมือง",
      "lat": 13.9394,
      "lng": 100.6086,
      "line": "red_north"
    },
    "rdn9": {
      "name": "Lak Si",
      "nameTh": "หลักสี่",
      "lat": 13.95153,
      "lng": 100.60703,
      "line": "red_north"
    },
    "yl10": {
      "name": "Bang Kapi",
      "nameTh": "บางกะปิ",
      "lat": 13.76945,
      "lng": 100.63914,
      "line": "yellow"
    },
    "yl12": {
      "name": "Hua Mak",
      "nameTh": "หัวหมาก",
      "lat": 13.75052,
      "lng": 100.64484,
      "line": "yellow"
    },
    "yl13": {
      "name": "Kalantan",
      "nameTh": "กลันตัน",
      "lat": 13.74457,
      "lng": 100.64326,
      "line": "yellow"
    },
    "yl15": {
      "name": "Si Nut",
      "nameTh": "ศรีนุช",
      "lat": 13.72316,
      "lng": 100.64196,
      "line": "yellow"
    },
    "yl16": {
      "name": "Si Iam",
      "nameTh": "ศรีเอี่ยม",
      "lat": 13.70882,
      "lng": 100.6447,
      "line": "yellow"
    },
    "yl18": {
      "name": "Si Thepha",
      "nameTh": "ศรีเทพา",
      "lat": 13.69345,
      "lng": 100.64731,
      "line": "yellow"
    },
    "yl19": {
      "name": "Thipphawan",
      "nameTh": "ทิพวัล",
      "lat": 13.68171,
      "lng": 100.64657,
      "line": "yellow"
    },
    "yl2": {
      "name": "Phawana",
      "nameTh": "ภาวนา",
      "lat": 13.80218,
      "lng": 100.58061,
      "line": "yellow"
    },
    "yl21": {
      "name": "Sai Luat",
      "nameTh": "สายลวด",
      "lat": 13.66525,
      "lng": 100.64455,
      "line": "yellow"
    },
    "yl22": {
      "name": "Si Kritha",
      "nameTh": "ศรีกรีฑา",
      "lat": 13.65679,
      "lng": 100.64252,
      "line": "yellow"
    },
    "yl3": {
      "name": "Chorakhe Bua",
      "nameTh": "จรเข้บัว",
      "lat": 13.7981,
      "lng": 100.58792,
      "line": "yellow"
    },
    "yl4": {
      "name": "Lat Phrao 71",
      "nameTh": "ลาดพร้าว 71",
      "lat": 13.79401,
      "lng": 100.59522,
      "line": "yellow"
    },
    "yl6": {
      "name": "Lat Phrao 83",
      "nameTh": "ลาดพร้าว 83",
      "lat": 13.78635,
      "lng": 100.60895,
      "line": "yellow"
    },
    "yl7": {
      "name": "Mahat Thai",
      "nameTh": "มหาดไทย",
      "lat": 13.78276,
      "lng": 100.61537,
      "line": "yellow"
    },
    "yl9": {
      "name": "Lat Phrao 101",
      "nameTh": "ลาดพร้าว 101",
      "lat": 13.77431,
      "lng": 100.63046,
      "line": "yellow"
    },
    "gd1": {
      "name": "Prajadhipok",
      "nameTh": "ประชาธิปก",
      "lat": 13.722075,
      "lng": 100.50475,
      "line": "gold"
    }
  }
}